,ID,Hotel_Name,Address,State,Tel_No,Rating,Price,Latitude,Longitude
0,0,"ALILA BANGSAR, KUALA LUMPUR","NO. 58, JALAN ANG SENG, 50470",Wilayah Persekutuan Kuala Lumpur,03-2282 5080,5,788,3.1277744,101.6801902
1,1,AVANI SEPANG GOLDCOAST RESORT,"No. 67 Jalan Pantai Bagan Lalang, Sg Pelek, 43950 Sepang",Selangor,03-3182 3600,5,757,2.629451,101.709655
2,2,AVILLION PORT DICKSON,"Lot 1273, 3rd, Jalan Pantai, 71000 Port Dickson",Negeri Sembilan,06-647 6688,5,624,2.5207171,101.8338187
3,3,BANGI RESORT HOTEL,"Off Persiaran Bandar, Bandar Baru Bangi, 43650 Bangi",Selangor,03-8210 2222,5,797,2.9452678,101.7650046
4,4,BANYAN TREE KUALA LUMPUR,"NO. 2, JALAN CONLAY, 50450",Wilayah Persekutuan Kuala Lumpur,03-21131888,5,776,3.1504944,101.7137683
5,5,BERJAYA LANGKAWI RESORT,"Karong Berkunci 200, Buray Bay, 07000 Langkawi",Kedah,04-959 1888,5,715,6.3186232,99.8508616
6,6,BERJAYA REDANG BEACH RESORT,"Pulau Redang, 20928 Kuala Terengganu",Terengganu,09-6971111,5,389,5.329624,103.1370142
7,7,BERJAYA TIMES SQUARE HOTEL KUALA LUMPUR,"No 1, Jalan Imbi, 55100 Kuala Lumpur",Wilayah Persekutuan Kuala Lumpur,03-2117 8000,5,690,3.1423189,101.7106022
8,8,CASA DEL RIO ,"88, Jalan Kota Laksamana, 75200 Melaka Tengah",Melaka,06-289 6888,5,562,2.1944399,102.2441021
9,9,CENTURY LANGKAWI BEACH RESORT,"Teluk Nibong, 07000 Langkawi",Kedah,04-955 1901,5,452,6.3605556,99.7011111
10,10,COUNTRY GARDEN FOREST CITY PHOENIX HOTEL,"PRESINT AURORA, JALAN FOREST CITY 1, PULAU SATU, FOREST CITY, 81550 GELANG PATAH",Johor,07-5053333,5,767,1.3389556,103.5932619
11,11,CROCKFORDS HOTEL,"RESORT WORLD GENTING, 69000 GENTING HIGHLANDS",Pahang,03 6101 1118,5,746,3.4235583,101.7916268
12,12,CROWNE PLAZA MUTIARA KUALA LUMPUR,"Jalan Sultan Ismail, 50250 Kuala Lumpur",Wilayah Persekutuan Kuala Lumpur,03-2148 2322,5,557,3.1552078,101.7055352
13,13,CYBERVIEW RESORT  SPA,"The Lodge, Persiaran Multimedia, Cyber 7, 63000 Cyberjaya",Selangor,03-8312 7000,5,688,2.9212264,101.6493963
14,14,DORSETT GRAND LABUAN,"462, Jalan Merdeka , 87029 Labuan ",Wilayah Persekutuan Labuan,087-422000,5,563,5.2753797,115.2475511
15,15,DORSETT GRAND SUBANG HOTEL,"Jalan SS 12/1, Subang Jaya, 41750 Petaling Jaya",Selangor,03-5031 6060,5,660,3.0792316,101.5951156
16,16,DORSETT PENANG HOTEL,"No.3, Jalan Larut, 10500 Georgetown",Pulau Pinang,04 - 2267888,5,732,5.4218958,100.3253637
17,17,DOUBLE TREE BY HILTON MELAKA,"HATTEN CITY, JALAN MELAKA RAYA, 75000",Melaka,06-222 3333,5,326,2.187545,102.255214
18,18,DOUBLETREE BY HILTON KUALA LUMPUR,"The Intermark, No. 348, Jalan Tun Razak, 50400 Kuala Lumpur",Wilayah Persekutuan Kuala Lumpur,03-2172 7272,5,379,3.1616636,101.720355
19,19,EASTERN  ORIENTAL HOTEL,"10, Leboh Farquhar, 10200 Georgetown",Pulau Pinang,04 - 222 2000,5,453,5.4233727,100.3356682
20,20,EASTIN HOTEL PETALING JAYA,"13, Jalan 16/11, Pusat Dagang Seksyen 16, 46350 Petaling Jaya",Selangor,03-76651111,5,724,3.1263276,101.6448004
21,21,EQ KUALA LUMPUR,"EQUATORIAL PLAZA, JALAN SULTAN ISMAIL, 50250",Wilayah Persekutuan Kuala Lumpur,03-2789 7777,5,713,3.1529563,101.7096486
22,22,EQUATORIAL HOTEL PENANG,"No.1, Jalan Bukit Jambul, 11900 Bayan Lepas",Pulau Pinang,04 - 632 7103,5,409,5.3370981,100.2849026
23,23,EVERGREEN LAUREL HOTEL PENANG,"53, Persiaran Gurney, 10250 Georgetown",Pulau Pinang,04 - 222 9988,5,346,5.4310982,100.317954
24,24,FOUR SEASONS HOTEL KUALA LUMPUR,"14, JALAN AMPANG, 50450 ",Wilayah Persekutuan Kuala Lumpur,03-2382 8888,5,641,3.1503674,101.6979337
25,25,FOUR SEASONS RESORT LANGKAWI,"Jalan Tanjung Rhu, Mukim Air Hangat, 07000 Langkawi",Kedah,04-950 8888,5,768,6.4288754,99.8022126
26,26,FRASER RESIDENCE KUALA LUMPUR,"NO.10, JLN CENDANA, OFF JALAN SULTAN ISMAIL,50250 KUALA LUMPUR",Wilayah Persekutuan Kuala Lumpur,03-21910888,5,552,3.1592514,101.7049512
27,27,G HOTEL GURNEY,"168A, Persiaran Gurney, 10250 Timur Laut",Pulau Pinang,04-238 0000,5,350,5.4375575,100.3106325
28,28,G HOTEL KELAWAI,"No.2,Persiaran Maktab, 10250 George Town",Pulau Pinang,04-219 0000,5,568,5.4356,100.3099
29,29,GENTING GRAND HOTEL,"Genting Highlands Resort, 69000 Genting Highland",Pahang,03-2718 1118,5,417,3.4235583,101.7916268
30,30,GRAND BLUEWAVE HOTEL SHAH ALAM,"Persiaran Perbandaran Seksyen 14,40000 Shah Alam",Selangor,03-5511 8811,5,794,3.0731871,101.5215037
31,31,GRAND HYATT KUALA LUMPUR,"12, Jalan Pinang, 50450 Kuala Lumpur",Wilayah Persekutuan Kuala Lumpur,03-21821234,5,753,3.153664,101.712256
32,32,GRAND ION DELEMEN HOTEL,"JALAN ION DELEMEN 1, DENTING HIGHLANDS, 69000",Pahang,03-92262255,5,418,3.4343503,101.7870587
33,33,GRAND LEXIS PORT DICKSON,"Batu 2, Jalan Seremban , 71000 Port Dickson",Negeri Sembilan,06-653 2000,5,643,2.5498877,101.7959357
34,34,GRAND MILLENNIUM KUALA LUMPUR,"160, Jalan Bukit Bintang, 55100 Kuala Lumpur",Wilayah Persekutuan Kuala Lumpur,03-217 4888,5,614,3.1479744,101.712256
35,35,HARD ROCK HOTEL DESARU COAST,"JALAN PANTAI 3, DESARU COAST, 81930 BANDAR PENAWAR",Johor,07-838 8888,5,438,1.5416593,104.2641964
36,36,HARD ROCK HOTEL PENANG,"Batu Ferringhi Beach, 11100 Batu Ferringhi",Pulau Pinang,04-881 1711,5,614,5.4721662,100.2471883
37,37,HATTEN HOTEL MELAKA,"Jalan Merdeka, Bandar Hilir, 75000",Melaka,06-286 9696,5,779,2.1897598,102.25078
38,38,HATTEN PLACE MELAKA,"HATTEN CITY, JALAN MELAKA RAYA 23, TAMAN MELAKA RAYA, 75000",Melaka,06-222 9696,5,794,2.18414,102.2623209
39,39,HILTON KOTA KINABALU,"JALAN TUNKU ABDUL RAHMAN, ASIA CITY 88000 KOTA KINABALU",Sabah,088-356 000,5,586,5.9670929,116.0731599
40,40,HILTON KUALA LUMPUR,"3, Jalan Stesen Sentral, 50470 Kuala Lumpur",Wilayah Persekutuan Kuala Lumpur,03-2264 2264,5,600,3.1352695,101.6862389
41,41,HILTON PETALING JAYA,"NO.2 JALAN BARAT, 46200 PETALING JAYA",Selangor,03-7959 9000,5,493,3.1024163,101.6408738
42,42,HOLIDAY INN GLENMARIE KUALA LUMPUR,"No. 1, Jalan usahawan U1/8, Seksyen U1, 40250 Shah Alam",Selangor,03-7803 1000,5,514,3.094567,101.577835
43,43,HOLIDAY INN MELAKA,"Jalan Syed Abd Aziz, 75000 Melaka",Melaka,06-285 9000,5,602,2.1870273,102.2506055
44,44,HOLIDAY INN RESORT DAMAI LAGOON,"Teluk Penyuk, 93756 Kuching",Sarawak,082-423111,5,790,1.553504,110.3592927
45,45,HOLIDAY VILLA SUBANG JAYA,"No.9 Jalan SS 12/1, 47200 Subang Jaya",Selangor,03-5633 8788,5,306,3.0792322,101.5953183
46,46,HOTEL AMARI JOHOR BAHRU,"NO. 82C, JALAN TRUS, 80000 JOHOR BAHRU",Johor,07-266 8888,5,650,1.4633597,103.7619442
47,47,HOTEL EQUATORIAL MELAKA,"Jalan Bandar Hilir, 75000 ",Melaka,06-2828333,5,644,2.192572,102.250454
48,48,HOTEL HILTON KUCHING,"Jalan Tuanku Abdul Rahman, 93300 Kuching",Sarawak,082-223888,5,471,1.5581943,110.3516965
49,49,HOTEL ISTANA,"No. 73, Jalan Raja Chulan, 50250 Kuala Lumpur",Wilayah Persekutuan Kuala Lumpur,03-21419988,5,773,3.1493967,101.709867
50,50,HOTEL LE MERIDIEN PUTRAJAYA,"LEBUH IRC, IOI RESORT CITY, 62502 PUTRAJAYA, SEPANG",Selangor,03-86896888,5,789,2.968031,101.70751
51,51,HOTEL MAYA KUALA LUMPUR,"138 Jalan Ampang, 50450 Kuala Lumpur",Wilayah Persekutuan Kuala Lumpur,03-2711 8866,5,646,3.1589418,101.707909
52,52,HYATT REGENCY KINABALU,"Jalan Datuk Salleh Sulong, 88991 Kota Kinabalu",Sabah,088-221 234,5,300,5.980408,116.0734568
53,53,HYATT REGENCY KUANTAN RESORT,"Telok Chempedak, 25050 Kuantan",Pahang,09-518 1234,5,525,3.8119576,103.3725871
54,54,INTERCONTINENTAL KUALA LUMPUR,"No.165, Jalan Ampang, 50450 Kuala Lumpur",Wilayah Persekutuan Kuala Lumpur,03-21611111,5,319,3.1594607,101.7159074
55,55,JW MARRIOT HOTEL KUALA LUMPUR,"183 Jalan Bukit Bintang, 55100 Kuala Lumpur",Wilayah Persekutuan Kuala Lumpur,03-2751 9000,5,611,3.1473335,101.7137913
56,56,KOTA KINABALU MARRIOTT HOTEL,"LOT G-23A, JALAN TUN FUAD STEPHENS, 88000 KOTA KINABALU",Sabah,088-286 888,5,607,5.9823039,116.0715399
57,57,LE MERIDIEN KOTA KINABALU ,"Jalan Tun Fuad Stephens Sinsuran , 88000 Kota Kinabalu ",Sabah,088-3222222,5,632,5.9793895,116.071874
58,58,LE MERIDIEN KUALA LUMPUR,"No 2, Jalan Stesen Sentral, Kuala Lumpur Sentral, 50470 Kuala Lumpur",Wilayah Persekutuan Kuala Lumpur,03-2263 7888,5,484,3.1355713,101.6863978
59,59,LEXIS HIBISCUS PORT DICKSON,"Batu 12, Jalan Pantai, 71250 Pasir Panjang",Negeri Sembilan,06-660 2626,5,435,2.417072,101.9233964
60,60,LEXIS SUITES  PENANG,"28, JALAN TELUK KUMBAR, MK. 3, 11920 BAYAN LEPAS",Pulau Pinang,04-6282800,5,595,5.2877786,100.2322213
61,61,LONE PINE HOTEL,"97, Batu Ferringhi, Mukim 17, 11100 Batu Ferringhi",Pulau Pinang,04 -8811511,5,730,5.4759543,100.2499138
62,62,MANDARIN ORIENTAL KUALA LUMPUR,"Kuala Lumpur City Centre, 50088 Kuala Lumpur",Wilayah Persekutuan Kuala Lumpur,03-2380 8888,5,576,3.1568055,101.7132345
63,63,MANGALA RESORT  SPA,"Lebuhraya Tun Razak, 26300 Gambang, Kuantan",Pahang,09-505 7788,5,602,3.6638813,103.1152493
64,64,MAXIMS HOTEL,"Genting Highlands Resort, 69000 Genting Highland",Pahang,013-9659169,5,738,3.4235583,101.7916268
65,65,MERITUS PELANGI BEACH RESORT  SPA LANGKAWI,"Pantai Cenang, 07000 Langkawi",Kedah,04-952 8888,5,362,6.2955916,99.7228132
66,66,MICASA ALL SUITE HOTEL,"368B, Jalan Tun Razak, 50400 Kuala Lumpur",Wilayah Persekutuan Kuala Lumpur,03-2179 8000,5,396,3.1694855,101.7090311
67,67,MIRI MARRIOTT RESORT  SPA,"Jalan Temenggong Datuk Oyong Lawai, 98000 Miri, Sarawak",Sarawak,085-421121,5,572,4.375074,113.971185
68,68,MOVENPICK HOTEL  CONVENTION CENTRE KLIA,"KOMPLEKS TH SEPANG, JALAN MASJID KLIA, 64000 SEPANG",Selangor,03-8661 8661,5,633,2.7882614,101.6784903
69,69,MULU MARRIOTT RESORT  SPA,"Sungai Melinau, 98008 Mulu, Sarawak",Sarawak,085-792388,5,357,4.0300388,114.7994662
70,70,NEW WORLD PETALING JAYA HOTEL,"PARADIGM, 1 JALAN SS7/26A KELANA JAYA, 47301 PETALING JAYA",Selangor,03-7682 0000,5,770,3.1051171,101.5959701
71,71,NEXUS RESORT   SPA KARAMBUNAI ,"Off Jalan Sepanggar Bay, Locked Beg 100, 88993 Kota Kinabalu",Sabah,088-411222,5,665,6.0713107,116.1268257
72,72,ONE WORLD HOTEL ,"First Avenue, Bandar Utama, City Centre, 47800 Petaling Jaya",Selangor,03-7681 1111,5,324,3.1463395,101.6170812
73,73,PACIFIC REGENCY HOTEL SUITES,"KH Tower, Jalan Punchak, Off Jalan P.Ramlee, 50250 Kuala Lumpur",Wilayah Persekutuan Kuala Lumpur,03-2332 7777,5,632,3.1532116,101.7055068
74,74,PALACE OF THE GOLDEN HORSES,"Jalan Kuda mas, The Mines Resort City, 43300 Seri Kembangan",Selangor,03-8943 2333,5,355,3.0345826,101.7179257
75,75,PALM,"Taman Putra Perdana, Presint 1, 62000 Putrajaya",Wilayah Persekutuan Putrajaya,03-88878888,5,794,2.9410892,101.6978464
76,76,PANGKOR LAUT RESORT,"Jetty Complex Marina Island Pangkor, KM 1, Teluk Muruh, 32200 Lumut,",Perak,05-6991100,5,635,4.2068542,100.6377185
77,77,PARK ROYAL PENANG RESORT,"Jalan Batu Ferringhi, 11100 Batu Ferringhi",Pulau Pinang,04-881 1133,5,385,5.4769973,100.2532274
78,78,PARK ROYAL SERVICED SUITES KUALA LUMPUR,"No. 1, Jalan Nagasari off Jalan Raja Chulan, 50200 Kuala Lumpur",Wilayah Persekutuan Kuala Lumpur,03-2084 1000,5,769,3.1495105,101.7090089
79,79,PARKROYAL HOTEL KUALA LUMPUR,"Jalan Sultan Ismail, 50250 Kuala Lumpur",Wilayah Persekutuan Kuala Lumpur,03-2147 0088,5,689,3.1552078,101.7055352
80,80,PAVILION HOTEL KUALA LUMPUR,"168, JALAN BUKIT BINTANG, 55100",Wilayah Persekutuan Kuala Lumpur,03-2118 2000,5,502,3.1489607,101.7134125
81,81,PHILEA RESORT  SPA,"Lot 2940, Jalan Ayer Keroh, Off Jalan Plaza Tol, 75450 Ayer Keroh",Melaka,06-233 3399,5,381,2.269607,102.294424
82,82,PULLMAN KUALA LUMPUR BANGSAR,"No 1, Jalan Pantai, Tower 3,59200",Wilayah Persekutuan Kuala Lumpur,03-2298 1888,5,785,3.1165885,101.6689073
83,83,PULLMAN KUALA LUMPUR CITY CENTRE HOTEL  RESIDENCES,"Jalan Conlay, 50450 Kuala Lumpur",Wilayah Persekutuan Kuala Lumpur,03-2170 8888,5,683,3.149967,101.7171227
84,84,PULLMAN KUCHING,"No.1A, Jalan Mathies, 93100 Kuching",Sarawak,082-222888,5,611,1.554912,110.349669
85,85,PULLMAN MIRI WATERFRONT,"1347, Miri Waterfront Comm. Centre, 98008 Miri ",Sarawak,085-323888,5,617,4.399493,113.9913832
86,86,PULLMAN PUTRAJAYA LAKESIDE,"No. 2, Jalan P5/5, Presint 5, 62200 Putrajaya",Wilayah Persekutuan Putrajaya,03-8890 0000,5,723,2.9002239,101.6695991
87,87,PULSE GRANDE HOTEL PUTRAJAYA,"Taman Putra Perdana, Presint 1, 62000",Wilayah Persekutuan Putrajaya,03-88878888,5,462,2.9410892,101.6978464
88,88,PUTRAJAYA MARRIOTT HOTEL,"Lot 3991, IOI Resort, 62502 Sepang Utara",Selangor,03-8949 8888,5,517,2.967135,101.7096787
89,89,RAMADA PLAZA MELAKA,"Jalan Bendahara, 75000 Melaka",Melaka,06-284 8888,5,591,2.1970732,102.2517985
90,90,RENAISSANCE HOTEL KUALA LUMPUR,"Corner Off Jalan Sultan Ismail  Jalan Ampang.Box 13357, 50450 Kuala Lumpur",Wilayah Persekutuan Kuala Lumpur,03-2162 2233,5,710,3.1564756,101.7047414
91,91,RENAISSANCE JOHOR BAHRU HOTEL,"No. 2, Jln Permas 11, Bandar Baru Permas Jaya,81750 Johor Bahru",Johor,07-381 3333,5,585,1.4955206,103.8154665
92,92,RESORTS WORLD KIJAL,"KM28, Jalan Kemaman Dungun, 24100 Kemaman",Terengganu,09-864 1188,5,798,4.339397,103.4557577
93,93,RIVERSIDE MAJESTIC HOTEL,"Jalan Tunku Abdul Rahman,  P.O Box 2928, 93100 Kuching",Sarawak,082-247 777,5,713,1.5582181,110.3515528
94,94,ROYALE CHULAN CHERATING,"KAMPUNG CHERATING LAMA, 26100 KUANTAN",Pahang,09-584 7333,5,378,4.1268437,103.3947004
95,95,SAMA-SAMA HOTEL KL INTERNATIONAL AIRPORT,"Jalan CTA 4B, KLIA, 64000 Sepang",Selangor,03-8787 3333,5,649,2.7573646,101.7035189
96,96,SAUJANA HOTEL KUALA LUMPUR ,"Saujana Resort, Jalan Lapangan Terbang SAAS, 40150 Shah Alam ",Selangor,03-78431234,5,789,3.1201885,101.5653956
97,97,SERI PACIFIC HOTEL KUALA LUMPUR,"Jalan Putra, 50350 Kuala Lumpur",Wilayah Persekutuan Kuala Lumpur,03-4042 5555,5,716,3.16703,101.6936957
98,98,SHAFTSBURY STELLAR PUTRAJAYA,"BLOK A, MENARA SHAFBURY PUTRAJAYA JALAN ALAMANDA PRESINT 1 62000 PUTRAJAYA",Wilayah Persekutuan Putrajaya,1-800-88-1300,5,768,2.9388906,101.7133708
99,99,SHANGRI-LA HOTEL KUALA LUMPUR,"No 11, Jalan Sultan Ismail, 50250 Kuala Lumpur",Wilayah Persekutuan Kuala Lumpur,03-2032 2388,5,354,3.1540774,101.7063402
100,100,SHANGRI-LA TANJUNG ARU RESORT,"Lot 20, Jalan Aru, 88100 Kota Kinabalu",Sabah,088-255800,5,408,5.9566799,116.0402113
101,101,SHANGRI-LA039S RASA RIA RESORT  SPA,"Pantai Dalit, P.O. Box 600, Tuaran, 89208 Kota Kinabalu",Sabah,088-791 188,5,631,5.980408,116.0734568
102,102,SHANGRI-LA039S RASA SAYANG RESORT SPA,"Batu Ferringhi, 11100 Batu Ferringhi",Pulau Pinang,04 - 888 8888,5,736,5.47124,100.246491
103,103,SHERATON HOTEL PETALING JAYA,"LOT 55, JALAN UTARA C, SEKSYEN 52, 46200 PETALING JAYA",Selangor,03-7622 8880/03-2092 3288,5,717,3.1092848,101.6410882
104,104,SHERATON IMPERIAL KUALA LUMPUR HOTEL,"Jalan Sultan Ismail, 50250 Kuala Lumpur",Wilayah Persekutuan Kuala Lumpur,03-2717 9900 ,5,390,3.1552078,101.7055352
105,105,SOFITEL KUALA LUMPUR DAMANSARA,"No. 6, Jalan Damanlela, Bukit Damansara, 50490",Wilayah Persekutuan Kuala Lumpur,03-2720 6688,5,576,3.1460576,101.6618787
106,106,SUNWAY PUTRA HOTEL ,"No. 100, Jalan Putra, 50350 Kuala Lumpur",Wilayah Persekutuan Kuala Lumpur,03-4040 4888,5,395,3.1664256,101.6924194
107,107,SUNWAY RESORT HOTEL,"No 1, Jalan PJS 11/15, Bandar Sunway, 46150 Petaling Jaya",Selangor,03-582 8000,5,333,3.0721128,101.6057416
108,108,SUNWAY RESORT HOTEL  SPA,"Persiaran Lagoon, Bandar Sunway, 47500 Petaling Jaya",Selangor,03-7592 8000,5,655,3.0723586,101.6089721
109,109,SWISS GARDEN HOTEL  RESIDENCES,"T2-4, The Shore @ Malacca River, Jalan Persiaran Bunga Raya, 75300 Melaka",Melaka,06-288 3131,5,408,2.2029276,102.2499158
110,110,TANJONG JARA RESORT,"8 Miles, Off Jalan Dungun, 23000 Dungun",Terengganu,09-8451100,5,352,4.6529374,103.4185385
111,111,THE ANDAMAN A LUXURY COLLECTION RESORT,"P.O.Box 94, Jalan Teluk Datai, 07000 Langkawi",Kedah,04-959 1088,5,604,6.4254573,99.6771825
112,112,THE BANJARAN HOTSPRINGS RETREAT,"Jalan Sunway City Ipoh 1/2, 31400 Ipoh, Perak",Perak,05-2107777,5,367,4.6274,101.15126
113,113,THE CHATEAU SPA  ORGANIC WELLNESS RESORT,"KM 48, PERSIMPANGAN BERTINGKAT, LEBUHRAYA KARAK, 28750 BUKIT TINGGI",Pahang,09-221 3888,5,372,3.3735735,101.8591767
114,114,THE DANNA LANGKAWI,"No. 236, Telaga Harbour Park, Pantai Kok, 07000 Langkawi",Kedah,04-959 3288,5,527,6.3679776,99.6820543
115,115,THE DATAI LANGKAWI,"Teluk Datai, Mukim Padang Matsirat, 07100 Langkawi",Kedah,04-950 0500,5,563,6.4279561,99.6734963
116,116,THE FACE SUITES,1020 JALAN SULTAN ISMAIL ,Wilayah Persekutuan Kuala Lumpur,03-2168 1688,5,762,3.1597524,101.7034825
117,117,THE GARDENS HOTEL  RESIDENCES,"The Gardens, Mid Valley CityLingkaran Syed Putra 59200 ",Wilayah Persekutuan Kuala Lumpur,03-22681188,5,687,3.118791,101.6759991
118,118,THE HAVEN RESORT HOTEL,"JALAN HAVEN, 31150 IPOH,",Perak,05-220 9000,5,434,4.6413935,101.1532421
119,119,THE KASTURI RESORT,"KM 32.5, JALAN KUANTAN - KEMAMAN CHERATING, 26080 KUANTAN",Pahang,09-582 5000,5,728,4.1285434,103.3872807
120,120,THE LIGHT HOTEL PENANG,"Lebuh Tenggiri 2, Bandar Seberang Jaya, 13700 Seberang Jaya",Pulau Pinang,04-3821111,5,627,5.3949649,100.397712
121,121,THE MAGELLAN SUTERA RESORT KOTA KINABALU,"1, Sutera Harbour Boulevard, Sutera Harbour, 88100 Kota Kinabalu",Sabah,088-318 888,5,576,5.968281,116.0581489
122,122,THE MAJESTIC HOTEL KUALA LUMPUR,"No 5, Jalan Sultan Hishamuddin, 50000 Kuala Lumpur",Wilayah Persekutuan Kuala Lumpur,03-21708888,5,559,3.1392281,101.6920414
123,123,THE ORCHARD WELLNESS  HEALTH RESORT,"63, JALAN SOLOK UBAN, KAMPUNG BRISU, LUBOK CHINA, 78100 ALOR GAJAH",Melaka,06-552 8999,5,733,2.41978,102.129349
124,124,THE PACIFIC SUTERA KOTA KINABALU,"2nd Sutera Harbour Boulevard, 88100 Kota Kinabalu",Sabah,088-318 888,5,608,5.968281,116.0581489
125,125,THE PRESTIGE HOTEL,"8, Gat Lebuh Gereja, 10300 Georgetown,",Pulau Pinang,04-2175888,5,459,5.4159743,100.3432
126,126,THE RITZ CARLTON LANGKAWI,"P.O BOX 199 JALAN PANTAI KOK, KAMPUNG TELUK NIBONG LANGKAWI",Kedah,04-952 4888,5,706,6.3628344,99.7105985
127,127,THE RITZ-CARLTON KUALA LUMPUR,"No 168, Jalan Imbi, 55100 Kuala Lumpur",Wilayah Persekutuan Kuala Lumpur,03-2142 8000,5,338,3.1471936,101.7158479
128,128,THE ROYALE BINTANG DAMANSARA HOTEL,"No 2, Jalan PJU 7/3, Mutiara Damansara, 47810 Petaling Jaya",Selangor,03-2148 9898,5,575,3.1619784,101.612692
129,129,THE ROYALE CHULAN DAMANSARA HOTEL,"No 2, Jln PJU 7/3, Mutiara Damansara,47810 Petaling Jaya",Selangor,03 7959 9000,5,570,3.1619784,101.612692
130,130,THE ROYALE CHULAN KUALA LUMPUR,"No. 5, Jalan Conlay, 50450 Kuala Lumpur",Wilayah Persekutuan Kuala Lumpur,03-2688 9688,5,725,3.1492317,101.7170283
131,131,THE RUMA HOTEL AND RESIDENCES,"NO.7 JALAN KIA PENG, 50450 ",Wilayah Persekutuan Kuala Lumpur,03-2778 0888,5,657,3.1523671,101.7145106
132,132,THE SAUJANA HOTEL KUALA LUMPUR,"SAUJANA RESORT, JALAN LAPANGAN TERBANG SAAS, 40150 SHAH ALAM",Selangor,03-7843 1234,5,764,3.1201885,101.5653956
133,133,THE ST. REGIS KUALA LUMPUR,"6, Jalan Stesen Sentral 2, 50470 Kuala Lumpur",Wilayah Persekutuan Kuala Lumpur,+60 3-2727 1111,5,742,3.13423,101.6863448
134,134,THE ST. REGIS LANGKAWI,"JALAN PANTAI BERINGIN, 07000 LANGKAWI",Kedah,04-960 6666,5,670,6.2958333,99.8616667
135,135,THE TAARAS BEACH  SPA RESORT ,"P.O.Box 126, Main Post Office, 20928 Kuala Terengganu",Terengganu,09-6308888,5,388,5.329624,103.1370142
136,136,THE WATERFRONT HOTEL,"68 JALAN TUN ABANG HAJI OPENG, 93000 KUCHING",Sarawak,082-227 227,5,589,1.5586965,110.3445001
137,137,THE WESTIN DESARU COAST RESORT,"Jalan Pantai 3, Desaru Coast, 81930 Bandar Penawar,",Johor,07-838 3333,5,771,1.5416593,104.2641964
138,138,THE WESTIN KUALA LUMPUR,"199, Jalan Bukit Bintang, 55100 Kuala Lumpur",Wilayah Persekutuan Kuala Lumpur,03-2731 8333,5,697,3.1476406,101.714569
139,139,THE WESTIN LANGKAWI RESORT  SPA,Jalan Pantai Dato Syed Omar . Langkawi Kedah Malaysia,Kedah,04-960 8888,5,319,6.300639,99.855186
140,140,THE ZENITH HOTEL KUANTAN,"Putra Square 6, Putra Square, 25200 Kuantan",Pahang,09-565 9595,5,418,3.8189254,103.3272891
141,141,THISTLE JOHOR BAHRU,"Jalan Sungai Chat, 80100 Johor Bahru",Johor,07-222 9234,5,666,1.4617968,103.7413713
142,142,THISTLE PORT DICKSON RESORT,"KM 16, Jalan Pantai, Teluk Kemang, 71050 Si Rusa, Port Dickson",Negeri Sembilan,06-648 2828,5,639,2.434535,101.8630532
143,143,TRADERS HOTEL KUALA LUMPUR,"Kuala Lumpur City Centre, 50088 Kuala Lumpur",Wilayah Persekutuan Kuala Lumpur,03-2332 9888,5,599,3.1568055,101.7132345
144,144,VANGOHH PREMIER HOTEL,"NO. 3406, JALAN MACHANG BUBOK 2, 14020 BUKIT MERTAJAM",Pulau Pinang,04-548 6888,5,301,5.3300212,100.5002169
145,145,VIVANTA REBAK ISLAND LANGKAWI BY TAJ,"Pulau Rebak Besar, 07000 Langkawi",Kedah,04-9665566,5,417,6.2985351,99.6981893
146,146,W KUALA LUMPUR,"121, JALAN AMPANG, 50450",Wilayah Persekutuan Kuala Lumpur,03-2786 8888,5,777,3.158464,101.7094092
147,147,WEIL HOTEL,"No. 292, Jalan Sultan Idris Shah,30000 Ipoh",Perak,05-208 2228,5,675,4.5946965,101.090079
148,148,WYNDHAM ACMAR KLANG HOTEL,"No. 1-G-1, Persiaran Bukit Raja 2/KU1, Bandar Baru Klang, 41150 Klang",Selangor,03-33118888,5,799,3.057395,101.4682556
149,149,ZENITH PUTRAJAYA,"NO. 1, JALAN P2A, PRESINT 2, 62000",Wilayah Persekutuan Putrajaya,03-8893 9993,5,526,2.9302755,101.6873927
150,150,A039FAMOSA RESORT HOTEL,"Jalan Kemus, Simpang Ampat, 78000 Alor Gajah",Melaka,06-552 0888,4,229,2.4430572,102.2101714
151,151,AC HOTEL KUANTAN CITY CENTRE,"Jalan Teluk Sisek, 25000 Kuantan",Pahang,09-517 8000,4,281,3.8108323,103.3317717
152,152,ACAPELLA SUITE HOTEL,"8, Persiaran Sukan Seksyen 13, 40100 Shah Alam",Selangor,03-3551 8218,4,248,3.089329,101.548008
153,153,ADYA HOTEL LANGKAWI,"No 1, PT 4001, Pusat Dagangan Pelancongan Kelana Mas, Jln Persiaran Mutiara,07000 Langkawi",Kedah,04-960 8000,4,181,6.324004,99.8438843
154,154,ALOFT KUALA LUMPUR SENTRAL,"No 5, Jalan Stesen Sentral, Kuala Lumpur Sentral, 50470 Kuala Lumpur",Wilayah Persekutuan Kuala Lumpur,03-27231188,4,148,3.1356693,101.686099
155,155,ALOFT LANGKAWI PANTAI TENGAH,"JALAN PANTAI TENGAH, MUKIM KEDAWANG, 07000 LANGKAWI",Kedah,04-9525252,4,260,6.288014,99.734787
156,156,AMAN TIOMAN BEACH RESORT,"Lot 73, Kampung Paya Pulau Tioman, Rompin,",Pahang,09-419 7788,4,289,2.7847565,104.1194308
157,157,AMANSARI RESIDENCE RESORT,"Jalan Persiaran Seri Alam, Bandar Seri Alam, 81750 Masai",Johor,07-3817008,4,189,1.5084265,103.8673789
158,158,AMBASSADOR ROW HOTEL SUITES BY LANSON PLACE,"No 1, Jalan Ampang Hilir, 55000 Kuala Lumpur",Wilayah Persekutuan Kuala Lumpur,03-4811 2888,4,136,3.1600821,101.729338
159,159,AMBONG POOL VILLAS ,"Jalan Teluk Baru, 07000 Langkawi,",Kedah,04-9558428,4,230,6.2698829,99.7337611
160,160,AMVERTON COVE GOLF  ISLAND RESORT,"PT673, Jalan Pulau Carey, Mukim Jugra, 42960 Klang",Selangor,03-3123 3888,4,229,2.8525678,101.39917
161,161,ANCASA ROYALE PEKAN,"No 2670 Jalan Pekan-Pahang, 26600 Pekan",Pahang,09-4246600,4,144,3.5073937,103.3946593
162,162,ANSA KUALA LUMPUR,"No 101, Jalan Bukit Bintang, 55100 Kuala Lumpur",Wilayah Persekutuan Kuala Lumpur,03-2146 5000,4,240,3.148326,101.714729
163,163,ASCOTT KUALA LUMPUR,"No 9, Jalan Pinang, 50450 Kuala Lumpur",Wilayah Persekutuan Kuala Lumpur,03-2718 6868,4,220,3.1547608,101.7104767
164,164,ASCOTT SENTRAL KUALA LUMPUR,"211, Jalan Tun Sambanthan,50470 ",Wilayah Persekutuan Kuala Lumpur,03-27279999,4,150,3.1308376,101.6845925
165,165,ASEANIA RESORT   SPA LANGKAWI,"Simpang 3, Jalan Pantai Tengah, Mukim Kedawang,07000 Langkawi",Kedah,04-9552020,4,255,6.2951074,99.7393799
166,175,BERINGGIS BEACH RESORT  SPA,"KM 26, Jalan Papar, Kampung Beringgis, 89600 Papar",Sabah,088-752333,4,222,5.454221,115.7791484
167,176,BERJAYA PENANG HOTEL,"1-Stop Midlands Park, Burmah Road, 10350 Georgetown",Pulau Pinang,04-227 7111,4,206,5.4330684,100.3063546
168,177,BERJAYA TIOMAN RESORT,"Kg.Tekek, Pulau Tioman, 26800 Kuala Rompin",Pahang,09-4191000,4,296,2.8225298,104.1611318
169,178,BERJAYA WATERFRONT HOTEL,"No 88, Jalan Ibrahim Sultan, Stulang Laut, 80300 Johor Bahru",Johor,07-2219999,4,189,1.4711281,103.784589
170,179,BILLION WATERFRONT,"1, Jalan Wawasan, 87000 Labuan",Wilayah Persekutuan Labuan,087-418111,4,153,5.274159,115.2487053
171,180,BUKIT MERAH LAKETOWN RESORT,"Jalan Bukit Merah, 34400 Semanggol",Perak,05-897 8888,4,285,4.9970638,100.6567633
172,181,CAMAR RESORT LANGKAWI,"JALAN PANTAI TENGAH, MUKIM KEDAWANG, 07000 LANGKAWI",Kedah,04-952 4111,4,200,6.288014,99.734787
173,182,CAMERON HIGHLANDS RESORT,"By The Golf Course, Jalan Besar, Tanah Rata, , 39000 Cameron Highlands",Pahang,05-491 1100,4,149,4.4790656,101.3779297
174,183,CAPRI BY FRASER,Menara Tiga Serangkai Jalan Tengku Azizah,Johor,07-277 0888,4,211,1.4658497,103.7639426
175,184,CAPRI BY FRASER KUALA LUMPUR,"No.5, Jalan Kerinchi, 59200 Kuala Lumpur",Wilayah Persekutuan Kuala Lumpur,03-2386 0888,4,294,3.1102471,101.6634805
176,185,CITITEL PENANG,"66, Jalan Penang, 10000 Georgetown",Pulau Pinang,04 - 291 1188,4,146,5.4214879,100.3326863
177,186,CLUB MED CHERATING,"29th Miles Kuantan-Kemaman Road, 26080 Cherating, Kuantan",Pahang,09-5819133,4,202,4.1285434,103.3872807
178,187,COLMAR TROPICALE,"KM 48, Persimpangan Bertingkat, Lebuhraya Karak, Bukit Tinggi, 28700 Bentong",Pahang,09-221 3666,4,234,3.3735735,101.8591767
179,188,CONCORDE HOTEL KUALA LUMPUR,"No.2, Jalan Sultan Ismail, 50250 Kuala Lumpur",Wilayah Persekutuan Kuala Lumpur,03-2144 2200,4,269,3.1556254,101.7054506
180,189,COPTHORNE HOTEL CAMERON HIGHLANDS,"P.O. Box 78, Kea Farm, Brinchang, 39100 Cameron Highlands",Pahang,05-496 1777,4,183,4.5082827,101.4076335
181,190,COPTHORNE ORCHID HOTEL PENANG,"Jalan Tanjung Bungah, 11200 Tanjung Bungah",Pulau Pinang,04 - 892 3333,4,175,5.4648985,100.284434
182,191,CORUS HOTEL,"Jalan Ampang, 50450 Kuala Lumpur",Wilayah Persekutuan Kuala Lumpur,03-2161 8888,4,240,3.1590323,101.7142178
183,192,CORUS PARADISE RESORT PORT DICKSON,"3.5KM, Jalan Pantai, 71000 Port Dickson",Negeri Sembilan,06-647 7600,4,143,2.5207171,101.8338187
184,193,COUNTRY GARDEN FOREST CITY GOLF HOTEL,"JALAN PERSIARAN GOLF 5, FOREST CITY GOLF RESORT, 81550 GELANG PATAH",Johor,07-535 2288,4,253,1.4107865,103.5533661
185,194,CRYSTAL CROWN HOTEL PETALING JAYA,"3rd Floor, Crystal crown Hotel, No. 12, Lorong Utara A, Off Jalan Utara, 46200 Petaling Jaya",Selangor,03-7958 4422,4,250,3.107903,101.645708
186,195,D039WHARF HOTEL SERVICED  RESIDENCE PORT DICKSON,"PERSIARAN WATERFRONT, PD WATERFRONT, 71000 PORT DICKSON",Negeri Sembilan,06-646 1888,4,157,2.5208366,101.8000423
187,196,DAMAI BEACH RESORT,"Teluk Bandung, Santubong, P.O. Box 2870, 93756 Kuching",Sarawak,082-335639,4,196,1.7468451,110.3145571
188,208,FAIRFIELD BY MARRIOT,"No.1, Lot 2203, 4172  4173, 2nd Floor-7th Floor, Old Airport Bintulu Paragong, 97000 Bintulu",Sarawak,086-851888,4,279,3.1750904,113.0400447
189,209,FLAMINGO HOTEL BY THE BEACH PENANG,"Jalan Tanjung Bungah, 11200 Tanjung Bungah",Pulau Pinang,04-892 7111,4,131,5.4648985,100.284434
190,210,FOUR POINTS BY SHERATON,"1201, Tower 3, Puchong Financial Corporate Centre (PFCC), Jln Puteri 1/2, Bandar Puteri,47100 Puchong",Selangor,03-58918888,4,207,3.0261095,101.6152365
191,211,FOUR POINTS BY SHERATON KUCHING,"Lot 3186, 3187, 3281  Part of Lot 7143, Block 16, KCLD, Lapangan Terbang Baru, 93350 Kuching",Sarawak,082-280888,4,132,1.5057381,110.3477305
192,212,FOUR POINTS BY SHERATON LANGKAWI RESORT,"Kuala Muda, Padang Matsirat, 07000 Langkawi",Kedah,04-952 7000,4,142,6.331283,99.724089
193,213,FOUR POINTS BY SHERATON SANDAKAN,"Sandakan Harbour Square, 90000",Sabah,089-244888,4,267,5.839444,118.1171729
194,214,FRASER PLACE KUALA LUMPUR,"Lot 163, No. 10, Jalan Perak, 50250 Kuala Lumpur",Wilayah Persekutuan Kuala Lumpur,03-21186338,4,177,3.1545439,101.7090094
195,215,FURAMA BUKIT BINTANG,"136, Jalan Changkat Thambi Dollah, 55100 Kuala Lumpur",Wilayah Persekutuan Kuala Lumpur,03-2788 8888,4,297,3.140038,101.710434
196,216,GAYANA ECO RESORT,"Teluk Malahom, Pulau Gaya, 88000 Kota Kinabalu",Sabah,088-442233,4,294,5.9790955,116.0679858
197,217,GENO HOTEL ,"Jalan Subang Mas, Taman Subang Mas, 47620 UEP Subang Jaya",Selangor,03-50336666,4,257,3.0556139,101.5581811
198,218,GOLDEN SANDS RESORT BY SHANGRI-LA,"Batu Ferringhi Beach, Batu Feringghi, 11100",Pulau Pinang,04-8861911,4,203,5.4721662,100.2471883
199,219,GOLDENBAY HOTEL,"Lot 3493, Bintulu Town, Jalan Tun Razak, 97000 Bintulu",Sarawak,086-311113,4,142,3.1911734,113.0384661
200,220,GRAND ALORA ALOR SETAR,"No.888, Persiaran Bandar Baru Mergong, Lebuhraya Sultanah Bahiyah05150 Alor Setar",Kedah,04-770 8888,4,174,6.1297739,100.3434784
201,221,GRAND BLUEWAVE HOTEL JOHOR BAHRU,"No.9R, Jalan Bukit Meldrum, 80300 Johor Bahru",Johor,07-2216666,4,221,1.4610889,103.7690165
202,222,GRAND DARUL MAKMUR HOTEL KUANTAN,"LOT 510, LORONG GAMBUT OFF JALAN BESERAH, 25300 KUANTAN",Pahang,09-511 8888,4,234,3.8131101,103.3304603
203,223,GRAND MARGHERITA HOTEL,"Jalan Tunku Abdul Rahman, 93100 Kuching",Sarawak,082-532111,4,186,1.5582181,110.3515528
204,224,GRAND PALACE HOTEL,"2nd-6th Floor, Lot 638, Block 7, MCLD, Pelita Commercial Centre, 98000 Miri",Sarawak,085-428888,4,186,4.4055332,114.0015977
205,225,GRAND RIVERVIEW HOTEL,"Jalan Post Office Lama, 15000 Kota Bharu",Kelantan,09-743 9988,4,163,6.1294445,102.2347447
206,226,HERITAGE CAMERON HIGHLANDS,"Jalan Gereja, Tanah Rata, 39000 Cameron Highlands",Pahang,05-491 3888,4,233,4.4705143,101.3721585
207,227,HILTON GARDEN INN PUCHONG,"JALAN DM2, TAMAN DESA MILLENIA 47150 PUCHONG",Selangor,03-8084 1299,4,241,2.9879687,101.5958703
208,228,HOLIDAY INN JOHOR BAHRU CITY CENTRE,"08-01, Komtar JBCC, Jalan Tun Abdul Razak, 80000 Johor Bahru,",Johor,07-2078888,4,266,1.4639632,103.7627382
209,229,HOLIDAY INN RESORT PENANG,"72, Batu Ferringhi, 11100 Batu Ferringhi",Pulau Pinang,04 - 8886 6620,4,156,5.4750544,100.24941
210,230,HOLIDAY VILLA ALOR STAR,"Lot 162  163, Jalan Tunku Ibrahim, 05000 Alor Setar",Kedah,04-734 9999,4,177,6.117487,100.370132
211,231,HOLIDAY VILLA BEACH  RESORT  SPA CHERATING,"Lot 1303, Mukim Sungai Karang, Cherating, 26080 Kuantan",Pahang,09-581 9500,4,142,4.129589,103.3867379
212,232,HOLIDAY VILLA JOHOR BAHRU CITY CENTRE," SULAIMAN, TAMAN ABAD, 80250 JOHOR BAHRU",Johor,07-290 3388,4,183,1.482543,103.7595973
213,233,HOLIDAY VILLA LANGKAWI BEACH RESORT  SPA LANGKAWI,"Lot 1698, Pantai Tengah, Mukim Kedawang, 07000 Langkawi",Kedah,04-9529999,4,250,6.2871945,99.7339302
214,234,HOMPTON BY THE BEACH PENANG,"NO. 533, JALAN C.M. HASHIM, 11200 TANJUNG TOKONG",Pulau Pinang,04-3735533,4,166,5.4635364,100.3051766
215,235,HORIZON HOTEL,"Jalan Pantai, Beg Berkunci 2084, 88999 Kota Kinabalu",Sabah,088-518000,4,193,5.9847112,116.0766962
216,236,HOTEL ARMADA PETALING JAYA,"Lot 6 Lorong Utara C, Seksyen 52, 46200 Petaling Jaya",Selangor,03-7954 6888,4,182,3.1041739,101.6399765
217,237,HOTEL AWANA GENTING HIGHLANDS,"KM 13, Genting Highlands, 69000 Genting Highland",Pahang,03-6436 9000,4,222,3.4235583,101.7916268
218,238,HOTEL CASUARINA @ MERU IPOH,"PT 245010, Bulatan Meru Raya, Medan Meru Bistari,30020 Ipoh",Perak,05-529 9999,4,270,4.6708222,101.0763969
219,239,HOTEL CONCORDE SHAH ALAM,"3, Jalan Tg.Ampuan Zabedah C9/C, 40100 Shah Alam",Selangor,03-5512 2200,4,244,3.08473,101.5220902
220,240,HOTEL DOUBLETREE BY HILTON JOHOR BAHRU,"No.12, Jalan Ngee Heng, 80000 Johor Bahru",Johor,07-268 6868,4,141,1.4652735,103.7596854
221,241,HOTEL EXCELSIOR,"NO.43, JALAN SULATN ABDUL JALIL, 30300 IPOH",Perak,05-253 6606,4,229,4.597398,101.086583
222,242,HOTEL GRANADA JOHOR BAHRU,"No. 55 Jalan Indah 15/2, Taman Bukit Indah, 81200 Johor Bahru",Johor,07-231 8888,4,165,1.4818952,103.6582482
223,243,HOTEL GRAND CONTINENTAL KUALA TERENGGANU,"Daerah 8,Jalan Sultan Zainal Abidin, 20000 Kuala Terengganu",Terengganu,09-6251888,4,294,5.3349013,103.1463058
224,244,HOTEL GRAND MARGHERITA,"JALAN TUNKU ABDUL RAHMAN, P.O. BOX 2362, KUCHING 93100 KUCHING",Sarawak,082-532111,4,279,1.5582181,110.3515528
225,245,HOTEL GRAND SEASONS,"No 72, Jalan Pahang, 50350 Kuala Lumpur",Wilayah Persekutuan Kuala Lumpur,03-2697 8888,4,175,3.169823,101.6980231
226,246,HOTEL GRANDIS,"Suria Sabah Shopping Mall 1, Jalan Tun Fuad Stephens, 88000 Kota Kinabalu",Sabah,088-522 888,4,228,5.9869207,116.0772856
227,247,HOTEL JEN PENANG BY SHANGRI-LA,"Jalan Megazine, 10300 Georgetown",Pulau Pinang,04 - 2622622,4,271,5.4124306,100.3319163
228,248,HOTEL JEN PUTERI HARBOUR,"PERSIARAN PUTERI SELATAN, PUTERI HARBOUR, 79000 ISKANDAR PUTERI",Johor,07-560 8888,4,219,1.4168483,103.6566859
229,249,HOTEL LE GRANDEUR PALM RESORT,"Jalan Persiaran Golf Off Jalan Jumbo, 81250 Senai",Johor,07-599 6000,4,227,1.6407016,103.660982
230,250,HOTEL PARK AVENUE SG. PETANI,"E1, Jalan Indah 2, Tmn Sejati Indah, 08000 Sg. Petani",Kedah,04-431 7777,4,286,5.6142205,100.4868502
231,251,HOTEL PERDANA KOTA BHARU,"Jalan Mahmood, Bandar Kota Bharu, 15000 Kota Bharu",Kelantan,09-7458888,4,256,6.1241752,102.2419658
232,252,HOTEL ROYAL KUALA LUMPUR,"Jalan Walter Granier, 55100 Kuala Lumpur",Wilayah Persekutuan Kuala Lumpur,03-2148 6888,4,261,3.14613,101.713123
233,253,HOTEL ROYAL PENANG,"No. 3, Jalan Larut, Off Jalan Burmah, 10050 Pulau Pinang",Pulau Pinang,04-2267888,4,294,5.4218958,100.3253637
234,254,HOTEL STRIPES KUALA LUMPUR,"25 JALAN KAMUNTING, 50300",Wilayah Persekutuan Kuala Lumpur,03-20380000,4,168,3.1571269,101.7006309
235,255,HOTEL TENERA,"Koperasi Permodelan FELDA Malaysia Berhad, Persiaran Kemajuan,43650 Bandar Baru Bangi",Selangor,03-89299600,4,282,2.948879,101.7577814
236,256,"HYATT HOUSE KUALA LUMPUR, MONT039 KIARA","G-2 ARCORIS, NO. 10 JALAN MONT 039 KIARA, 50480",Wilayah Persekutuan Kuala Lumpur,03-6419 8888,4,296,3.1681185,101.6518685
237,257,IBIS KUALA LUMPUR CITY CENTRE,"MENARA KOLAPIS, 32 JALAN YAP KWAN SENG, 50450",Wilayah Persekutuan Kuala Lumpur,03-2770 6419,4,271,3.1632131,101.7144355
238,258,IBIS MELAKA,"249, JALAN BENDAHARA, 75100",Melaka,06-222 8888,4,269,2.1978086,102.2520872
239,259,ICONIC HOTEL,"NO.71, JALAN ICON CITY,14000 BUKIT MERTAJAM",Pulau Pinang,04-5059988,4,161,5.3421212,100.4329393
240,260,IMPERIAL HOTEL KUCHING,"3rd Floor, Boulevard Shopping Mall, Jln Datuk Tawi Sli,93250 Kuching",Sarawak,082-588 999,4,209,1.5096909,110.3360013
241,261,IMPERIAL HOTEL MIRI,"Lot 827, Blok 9, MCLD, Jalan Pos, 98000 Miri",Sarawak,085-431133,4,173,4.3994,113.9905
242,262,IMPERIAL PALACE HOTEL,"Lot 1120, Block 7, Jalan Sehati, MCLD, 98000 Miri",Sarawak,085-437799,4,242,4.4047054,114.0003105
243,263,IMPIANA HOTEL SENAI,"PTD 103232, JALAN IMPIAN SENAI UTAMA 2, TAMAN IMPIAN SENAI, 81400 SENAI",Johor,07-5958899,4,218,1.5939583,103.646835
244,264,IMPIANA KLCC HOTEL  SPA,"13, Jalan. Pinang, 50450 Kuala Lumpur",Wilayah Persekutuan Kuala Lumpur,03-2147 1111,4,246,3.1535593,101.7113219
245,265,IMPIANA RESORT CHERATING,"KM 32, Jalan Kuantan - Kemaman, Cherating, 26000 Cherating",Pahang,09-581 9000,4,260,4.1006316,103.3814297
246,266,IXORA HOTEL,"Jalan Baru, Bandar Perai Jaya, 13600 Perai",Pulau Pinang,04-382 8888,4,242,5.3783863,100.3991725
247,267,"JAPAMALA RESORT		","Kampung Lanting, 26800 Rompin	",Pahang,09-419 7777,4,237,2.74486,104.12406
248,268,JINHOLD HOTEL  SERVICED APARTMENT,"LOT 14735 (PARENT LOT 105) BLOCK 5, LAMBIR LAND DISTRICT, JALAN AIRPORT, 98000 MIRI",Sarawak,085-638555,4,140,4.198371,114.042873
249,269,KINGS GREEN HOTEL,"28, Jalan Tun Perak, 75300 Melaka",Melaka,06-2881091,4,135,2.2094729,102.2438395
250,270,KINGWOOD HOTEL SIBU,"No.12, Lorong Lanang 4, P.O. Box 1201, 96000 Sibu",Sarawak,084-335888,4,283,2.2832588,111.832703
251,271,KINTA RIVERFRONT HOTEL  SUITES,"2, Jalan Lim Bo Seng, 30000 Ipoh",Perak,05-245 8888,4,279,4.600042,101.0845459
252,272,KLANA RESORT SEREMBAN,"Jalan Penghulu Cantik Taman Tasik Seremban, 70100 Seremban",Negeri Sembilan,06-762 7888,4,286,2.7208334,101.9522393
253,273,KSL RESORT,"L1-95, KSL City, No.33, Jalan Seladang, Tmn Abad, 80250 Johor Bahru",Johor,07-288 2999,4,130,1.4854384,103.7628811
254,274,LAGUNA REDANG ISLAND RESORT,"S-5, Wisma Tenang, Jalan Sultan Sulaiman 20000 Kuala Terengganu",Terengganu,09-631 0883,4,257,5.3307999,103.1447839
255,275,"LAKE KENYIR RESORT, TAMAN NEGARA","Pengkalan Gawi, Hulu Terengganu, 21700 Kuala Berang",Terengganu,09-6668888,4,210,5.13907,102.802117
256,276,LANSON PLACE BUKIT CEYLON SERVICED APARTMENT,"10, Jalan Ceylon 50200",Wilayah Persekutuan Kuala Lumpur,03-2725 8888,4,253,3.147596,101.7049614
257,277,LEMBAH IMPIAN COUNTRY HOMES,"KM 45, Kampung Kandazon, Jalan Putatan-Ramavah, 89507 Penampang",Sabah,088-766117,4,180,5.8805237,116.0497337
258,278,LEXIS PORT DICKSON,"No 2 Jalan Seremban, 71000 Port Dickson",Negeri Sembilan,06-653 2000,4,260,2.5498877,101.7959357
259,279,LIKAS SQUARE APARTMENT HOTEL,"No. 1, Lorong Likas Square, Jalan Istiadat , 88400 Kota Kinabalu",Sabah,088-252233,4,137,5.9900357,116.0925311
260,280,LIU MEN MELAKA,"NO. 48-56, JALAN TOKONG, 75200",Melaka,06-288 1161,4,134,2.1979008,102.2463842
261,281,LOTUS DESARU BEACH RESORT  SPA,"PTD 1854, Jalan Desaru, P.O Box 31, Bandar Penawar, 81930 Kota Tinggi",Johor,07- 884 2800,4,270,1.5519059,104.2576114
262,282,M ROOF HOTEL  RESIDENCES,"JALAN DATO LAU PAK KUAN, 31400 IPOH",Perak,05-547 1777,4,286,4.6123055,101.1098455
263,283,M SUITES HOTEL,"No.16, Jalan Skudai, Straits View, 80200 Johor Bahru",Johor,07-221 1000,4,135,1.4651131,103.73041
264,284,M.S GARDEN HOTEL ,"Lot 5  10, Lorong Gambut, Off Jalan. Beserah, 25300 Kuantan",Pahang,09-511 8888,4,144,3.8131745,103.3306395
265,285,MAHKOTA HOTEL MELAKA,"No. 16, Jalan Syed Abdul Aziz, 75000 Melaka Tengah",Melaka,06-2812828,4,295,2.1870273,102.2506055
266,286,MEGA HOTEL,"Lot 907, Jln. Merbau, P.O. Box 1165, 98000 Miri",Sarawak,085-432432,4,200,4.396883,113.9881236
267,287,MELIA HOTEL,"No.16, Jalan Imbi, 55100 Kuala Lumpur",Wilayah Persekutuan Kuala Lumpur,03-2142 8333,4,215,3.1432741,101.7098095
268,288,MERCURE KOTA KINABALU CITY CENTRE,"NO.41, JALAN GAYA, 88000 KOTA KINABALU",Sabah,+6015 4875 1881,4,201,5.9882374,116.079567
269,289,MERCURE KUALA LUMPUR SHAW PARADE,"NO. 152, CHANGKAT THAMBI DOLLAH, 55100",Wilayah Persekutuan Kuala Lumpur,03-9224 3030,4,266,3.139927,101.712005
270,290,MERCURE SELANGOR SELAYANG,"NO. B-G-12, DATARAN EMERALD, JALAN PS 11, PRIMA SELAYANG, 68100 BATU CAVES",Selangor,03-6128 9999,4,266,3.2351389,101.672802
271,291,MERITZ HOTEL,"Lot 1079, Block 9, MCLD Jalan Miri, Pujut, 98000 Miri",Sarawak,085-417888,4,290,4.4053222,114.0032015
272,292,MIMPI PERHENTIAN RESORT,"LOT 16, KAMPUNG PASIR PANJANG, PULAU PEREHENTIAN, 22300",Terengganu,09-691 1818,4,183,5.909231023,102.7479949
273,293,MINES WELLNESS RESORT,"The Mines Resort City, Jalan Dulang.Sri Kembangan, 43300 Seri Kembangan",Selangor,03-8943 6688,4,153,3.0277025,101.7196243
274,294,MING GARDEN HOTEL  RESIDENCES,"Lorong Ming Garden, Jalan Coastal, 88000 Kota Kinabalu",Sabah,088-528 888,4,250,5.9667491,116.0644401
275,295,MITC HOTEL MELAKA INTERNATIONAL,"MELAKA INTERNATIONAL TRADE CENTRE, 75450",Melaka,06-233 1551,4,136,2.27102,102.2876399
276,308,PAN BORNEO HOTEL KOTA KINABALU,"ONE PLACE MALL, LORONG PUTAT 3, PUTATAN, 88200 KOTA KINABALU",Sabah,088-327 777,4,215,5.8918466,116.0479706
278,310,PARKCITY EVERLY HOTEL,"Jalan Tun Razak, 97000 Bintulu",Sarawak,085-418888,4,222,3.1911734,113.0384661
279,311,PAYA BEACH SPA  DIVE RESORT,"LOT 71  77 KAMPUNG PAYA, PULAU TIOMAN",Pahang,09-419 7100,4,172,2.7902494,104.1698463
280,312,PNB ILHAM RESORT,"Batu 10, Tanjung Biru, 71050 Port Dickson",Negeri Sembilan,06-662 6800,4,299,2.4156852,101.8574301
281,313,PNB PERDANA HOTEL  SUITES ON THE PARK KUALA LUMPUR,"No 10, Jalan Binjai, 50450 Kuala Lumpur",Wilayah Persekutuan Kuala Lumpur,03-7490 3333,4,149,3.1581536,101.7190276
282,314,PREMIERE HOTEL,"Bandar Bukit Tinggi 1/KS6, Jalan Langat, 41200 Klang",Selangor,03-3325 6868,4,298,3.0076893,101.4415664
283,315,PRIMULA BEACH HOTEL,"JALAN PERSINGGAHAN, 20400 KUALA TERENGGANU",Terengganu,09-6222100/09-6233722,4,200,5.3284705,103.1516904
284,316,PROMENADE HOTEL KOTA KINABALU,"No.4, Lorong Api-Api 3, Api-Api Centre, 88000 Kota Kinabalu",Sabah,088-265555,4,142,5.975449,116.0704598
285,317,PULAI SPRINGS RESORT,"20KM, Jalan Pontian Lama, 81110 Pulai",Johor,07-5212121,4,156,1.558681,103.6209971
286,318,PUREST HOTEL SUNGAI PETANI,"NO. A-2 JALAN INDAH 1, TAMAN SEJATI INDAH, 08000 SUNGAI PETANI",Kedah,04-4303000,4,178,5.6144483,100.4820971
287,319,RAIA HOTEL  CONVENTION CENTRE ALOR SETAR,"5860 Mukim Titi Gajah, Daerah Kota Setar, 06020 Alor Setar",Kedah,04-740 3666,4,197,6.192244,100.3839908
288,320,RAIA HOTEL  CONVENTION CENTRE TERENGGANU,"Jalan Lapangan Terbang, Gong Badak, 21300 Kuala Nerus,",Terengganu,09-668 6666,4,271,5.3703184,103.098967
289,321,RAINBOW PARADISE BEACH RESORT,"527, Jalan Tanjung Bungah, 11200 Tanjung Bungah",Pulau Pinang,04 - 8999999,4,247,5.467183,100.2891769
290,322,RAMADA BY WYNDHAM MERIDIN JOHOR BAHRU,"No.5 Jalan Legoland, Bandar Medini Iskandar,",Johor,07-5318888,4,242,1.4218578,103.6299905
291,323,RAMADA SUITES KUALA LUMPUR CITY CENTRE,"NO. 1, LORONG CEYLON, BUKIT CEYLON, 50200",Wilayah Persekutuan Kuala Lumpur,03-2386 9221,4,195,3.1484473,101.7078524
292,324,RAWA ISLAND RESORT,"Tourist Centre, 86800, Mersing",Johor,07-7991204,4,262,2.4082288,103.8448134
293,325,RESORT WORLD LANGKAWI,"TANJUNG MALAI,07000 LANGKAWI ",Kedah,04-9555111,4,281,6.293806,99.727811
294,326,RH HOTEL,"Jalan Kampong Nyabor, P.O.Box 1762, 96008 Sibu",Sarawak,084-365999,4,248,2.2900672,111.8293455
295,327,ROYALE CHULAN BUKIT BINTANG,"17-21 JALAN BUKIT BINTANG, 55100",Wilayah Persekutuan Kuala Lumpur,03-2147 9898,4,209,3.1439773,101.7084626
296,328,"SABAH HOTEL, SANDAKAN","KM1, Jalan Utara, Peti Surat 275, 90703 Sandakan",Sabah,089-213299,4,236,5.8577579,118.084695
297,329,SABAH ORIENTAL HOTEL,"Lorong Kemajuan, 88000 Kota Kinabalu",Sabah,088-258998,4,269,5.9710083,116.0709289
298,330,SAMALAJU RESORT HOTEL,"Lot 132, Block 1, Kemena Land District, Samalaju Industrial Park, 97000 Bintulu",Sarawak,086-291999,4,179,3.5438547,113.3169446
299,331,SAND  SANDALS DESARU BEACH RESORT  SPA,"PTB 2263, JALAN DESARU, 81930 BANDAR PENAWAR",Johor,07-822 2222,4,221,1.5612484,104.2531841
300,332,SEAFEST HOTEL,"Jalan Kastam, P.O. Box 125, 91308 Semporna ",Sabah,089-782 333,4,133,4.4801926,118.6169277
301,333,SIPADAN -KAPALAI DIVE RESORT,"Pulau Kapalai, Jalan Causeway, 91300 Semporna ",Sabah,089-765 200,4,140,4.477955,118.61412
302,334,SOMERSET AMPANG KUALA LUMPUR,"Lot 117, Seksyen 89A, Jalan Ampang, 55000 Kuala Lumpur",Selangor,03-2723 8888,4,289,3.1576415,101.7495639
303,335,SOMERSET DAMANSARA UPTOWN PETALING JAYA,"NO.2A, JALAN SS21/37, DAMANSARA UTAMA, 47400 PETALING JAYA",Selangor,017-374 0909,4,275,3.135813,101.6234
304,336,SOMERSET PUTERI HARBOUR NUSAJAYA,"Persairan Puteri Selatan, Puteri Harbour, 79000 Nusajaya",Johor,03-2036 8188,4,197,1.4168483,103.6566859
305,337,STRAWBERRY PARK RESORT,"Lot 195  196, Jalan Strawberry Park, Brinchang, 39000 Tanah Rata",Pahang,05-491 1166,4,288,4.4953861,101.3798446
306,338,SUMMER BAY LANG ISLAND RESORT,"LOT 52, PASIR BESAR PULAU LANG TENGAH, MUKIM PULAU REDANG, 21090 KUALA TERENGGANU",Terengganu,09-631 3366,4,233,5.8005556,102.8936111
307,339,SUNWAY CLIO HOTEL,"Off Persiran Lagoon, Bandar Sunway, 47500 Selangor",Selangor,03-74928000,4,249,3.0723586,101.6089721
308,340,SUNWAY HOTEL GEORGETOWN,"33, Lorong Baru, Off Jalan Macalister, 10400 Georgetown",Pulau Pinang,04-229 9988,4,172,5.414308,100.3257145
309,341,SUNWAY HOTEL SEBERANG JAYA,"11, Lebuh Tenggiri Dua, Pusat Bandar Seberang Jaya, 13700 Seberang Jaya",Pulau Pinang,04-377 7788,4,183,5.3950099,100.3993094
310,342,SUNWAY PYRAMID HOTEL,"Persiaran Lagoon, Bandar Sunway, 47500 Subang Jaya, ",Selangor,03-7492 8000,4,295,3.0723586,101.6089721
311,343,SWISS GARDEN BEACH RESORT DAMAI LAUT,"Jalan Damai Laut, Off Jalan Teluk Senangin, 32200 Lumut",Perak,05-684 3333,4,201,4.2902804,100.6124188
312,344,SWISS GARDEN RESORT  SPA KUANTAN,2656-2657 MUKIM SUNGAI KARANG BALOH BEACH ,Pahang,09-548 8288,4,196,3.9360235,103.3695
313,345,SWISS-BELHOTEL KUANTAN,"Jalan Tanjung Lumpur 1, Kuantan Waterfront Resort City, 26060 Kuantan",Pahang,09-404 8888,4,158,3.775025,103.3200476
314,346,SWISS-GARDEN HOTEL  RESIDENCES,"117, Jalan Pudu, 55100 Kuala Lumpur",Wilayah Persekutuan Kuala Lumpur,03-27851111,4,132,3.1438258,101.7052282
315,347,SYMPHONY SUITES,"No. 41, Lapangan Symphony, Busines Park, Jalan Lapangan Suites, 31350 Ipoh",Perak,05-312 2288,4,161,4.5604822,101.1120783
316,348,SYUEN HOTEL IPOH,"88, Jalan Sultan Abdul Jalil, 30300 Ipoh",Perak,05-253 8889,4,201,4.5977633,101.0884146
317,349,TAMU HOTEL  SUITES KUALA LUMPUR,"120 JALAN RAJA ABDULLAH, KAMPUNG BARU, 50300",Wilayah Persekutuan Kuala Lumpur,03-2603 1999,4,276,3.1634306,101.7025213
318,350,TANAH AINA FARRAH SORAYA ECO RESORT,"LOT 874, JALAN TRANS, 27600 RAUB",Pahang,016-6090493,4,240,3.528168,101.9053192
319,351,TH HOTEL  CONVENTION CENTRE ALOR SETAR,"Lot 3860, Mukim Titi Gajah, Seksyen 2, Bandar Anak Bukit,06020 Kota Setar",Kedah,04-740 3666,4,284,6.1841035,100.3743535
320,352,TH HOTEL  CONVENTION CENTRE KUALA TERENGGANU,"Jln Lapangan Terbang, Gong Badak,21300 Kuala Terengganu",Terengganu,09-6686866,4,194,5.3703184,103.098967
321,353,THE BOULEVARD KUALA LUMPUR,"Mid Valley City, Lingkaran Syed Putra 59200",Wilayah Persekutuan Kuala Lumpur,+60 3-2295 8000,4,265,3.1182461,101.6786285
322,354,THE CITY BAYVIEW HOTEL PENANG,"25-B, Farquhar Street, 10200 Georgetown",Pulau Pinang,04 - 2633161,4,166,5.422267,100.336297
323,355,THE EVERLY HOTEL PUTRAJAYA,"No.1, Jalan Alamanda 2, Precint 1, , 62100 Putrajaya",Wilayah Persekutuan Putrajaya,03-8892 2929,4,278,2.9393805,101.7110002
324,356,THE FEDERAL KUALA LUMPUR,"No.35, Jalan Bukit Bintang, 55100 Kuala Lumpur",Wilayah Persekutuan Kuala Lumpur,03-2148 9166,4,252,3.148326,101.714729
325,357,THE FRANGIPANI LANGKAWI,"Jalan Teluk Baru, Pantai Tengah, Mukim Kedawang , 07100 Langkawi ",Kedah,04-952 0000,4,280,6.282729,99.7308028
326,358,THE GRAND RENAI HOTEL,"Kota Sri Mutiara, Jalan Sultan Yahya Petra, 15150 Kota Bharu",Kelantan,09-746 2233,4,290,6.1133926,102.2496963
327,359,THE GUEST HOTEL  SPA ,"PT 4704, Jalan Ds 3/1, Bandar Dataran Segar, 71010 Port Dickson",Negeri Sembilan,06-651 7781,4,191,2.560319,101.818208
328,360,THE IMPERIAL HERITAGE MELAKA,"No. 1, Jalan Merdeka 1, Melaka Raya, 75000 Melaka",Melaka,06-289 9000,4,226,2.1900243,102.2488618
329,361,THE KATERINA HOTEL,"8, Jalan Zabedah, 83000 Batu Pahat",Johor,07-4337111,4,200,1.852586,102.935017
330,362,THE KLAGAN REGENCY,"TB-00-01, 1 BORNEO HYPERMALL, JALAN UMS, 1 BORNEO 88450 KOTA KINABALU",Sabah,088-829 888,4,206,6.0343158,116.1264963
331,363,THE LEGACY MELAKA / AVILLION LEGACY MELAKA,"146, Jln. Hang Tuah,75300 ",Melaka,06-2816868,4,240,2.2066625,102.2458454
332,364,THE LEGEND RESORT,"Lot 1290, Mukim Sg. Karang, Cherating, 26080 Cherating",Pahang,09-581 9818,4,202,4.129589,103.3867379
333,365,THE MAJESTIC MALACCA,"188, Jalan Bunga Raya, 75100 Melaka",Melaka,06-2898000,4,183,2.2002062,102.2514281
334,366,THE NORTHAM ALL SUITE PENANG,"55, JALAN SULTAN AHMAD SHAH, 10050 GEORGETOWN,",Pulau Pinang,04-3701111,4,205,5.4271276,100.3213299
335,367,THE PALACE HOTEL,"No.1, Jalan Tangki, Karamunsing, Beg Berkunci 75, 88100 Kota Kinabalu",Sabah,088-217 222,4,140,5.9729073,116.0758351
336,368,THE PEARL KUALA LUMPUR,"Batu 5, Jalan Klang Lama, 58000 Kuala Lumpur",Wilayah Persekutuan Kuala Lumpur,03-7983 1111,4,174,3.1188637,101.6798345
337,369,THE PINES HOTEL,"33, Jalan Tun Sri Lanang 75100 Melaka",Melaka,06-240 2323,4,137,2.2045759,102.2521517
338,370,THE PUTERI PACIFIC,"The Kotaraya Jalan Abdullah Ibrahim, 80000 Johor Bahru",Johor,07-2199999,4,244,1.4594943,103.7630603
339,371,THE QAMAR PAKA,"Lot 473, Kampung Cacar Paka, 23100 Dungun",Terengganu,09-827 3366,4,158,4.627918,103.4403811
340,372,THE REEF DIVE RESORT,"6th Floor Wisma DSN 0193, 194  195 Jalan Bakau, 91008 Tawau",Sabah,089-770022 (O) / 78604 (ISLAND),4,150,4.2463708,117.8831603
341,373,THE ROYAL BINTANG RESOR  SPA SEREMBAN,JALAN DATO039 A.S DAWOOD 70100 SEREMBAN,Negeri Sembilan,06-766 6666,4,294,2.6935001,101.951925
342,374,THE ROYALE BINTANG DAMANSARA,"6, Jalan. PJU 7/3, Mutiara Damansara, 47800 Petaling Jaya",Selangor,03-79599000,4,144,3.1577484,101.611405
343,375,THE ROYALE BINTANG RESORT  SPA SEREMBAN,"Jalan Dato A.S Dawood, 70100 Seremban",Negeri Sembilan,06-766 666,4,242,2.7206935,101.9440274
344,376,THE ROYALE BINTANG THE CURVE,"6, Jln. PJU 7/3, Mutiara Damansara,47800 Petaling Jaya",Selangor,03- 7483 1111,4,222,3.1577484,101.611405
345,377,THE ROYALE CHULAN PENANG,"No. 1  2, Pengkalan Weld,10300 Georgetown",Pulau Pinang,04-259 8888,4,202,5.4168989,100.3439565
346,378,THE SETTLEMENT HOTEL MELAKA,"No 63, Jalan Ujong Pasir, 75050 Melaka Tengah",Melaka,06-2921133,4,264,2.1873025,102.268361
347,379,THE STRAITS HOTEL  SUITES,"No 1-B, Jalan Melaka Raya 2, Taman Melaka Raya, 75000",Melaka,06-289 8555,4,289,2.1882562,102.2539662
348,380,THE SUMMIT HOTEL SUBANG USJ,"Persiaran Kewajipan USJ 1, 47600 Subang Jaya",Selangor,03-8023 3000,4,194,3.0597515,101.5924378
349,381,THE WEMBLEY - A ST. GILES HOTEL PENANG,"183, Jalan Megazine, 10300 Pulau Pinang",Pulau Pinang,04-259 8000,4,185,5.4129413,100.3297368
350,382,TIARA LABUAN HOTEL  APARTMENT ,"Jalan Tanjung Batu, PO Box 80537, 87015 Labuan ",Wilayah Persekutuan Labuan,087-414300,4,159,5.2835805,115.2619149
351,402,5 HEEREN HOTEL,"5, JALAN TUN TAN CHENG LOCK, 75200",Melaka,06-2922225,3,129,2.19459,102.2476334
352,403,9 SQUARE HOTEL ,"No. 17  19, Jalan PJU 5/20E The Strand, Kota Damansara 48710 Petaling Jaya ",Selangor,03-61422822,3,103,3.1546554,101.5954433
353,404,900 INN,"LOT, SUB LOT 96,FORTUNR PARK TANJUNG BATU,97000 BINTULU ",Sarawak,086-315527,3,102,3.2096757,113.0451419
354,405,906 PREMIER HOTEL,"32, Jalan Mutiara Melaka 3, Taman Mutiara Melaka 75350 Hang Tuan Jaya",Melaka,06-317 9067,3,124,2.2402497,102.2608893
355,406,A BEST SERI BUKIT CEYLON,"1-03 Seri Bukit Ceylon Serviced Residence, 8 Lorong Ceylon, Off Jalan Raja Chulan 50250 Kuala Lumpur",Wilayah Persekutuan Kuala Lumpur,+60 17-601 9981,3,60,3.1488718,101.7074064
356,407,AAVA MALACCA HOTEL,"NO. 10, 12  14, JALAN KAMPUNG HULU, 75200 MELAKA TENGAH",Melaka,06-288 3977,3,129,2.1980478,102.2479599
357,408,ABELL HOTEL,"No. 22, Jalan Tunku Abdul Rahman, 93100 Kuching",Sarawak,082-239 449,3,53,1.5573958,110.3503416
358,409,AJ HOTEL,"No 300-D, Tingkat 1, Batu Ajil, 21800 Hulu Terengganu",Terengganu,09-6862333,3,104,4.9499611,103.0587399
359,410,AL33 LEISURE,"No 83  85, Jln KL 3/8, Tmn Kota Laksamana, Kwsn Bandar IV,75200 Melaka Tengah",Melaka,012-6515157,3,132,2.1939299,102.2448646
360,411,ALDY HOTEL,"No 27, Jalan Kota, 75000 Melaka",Melaka,06-283 3232,3,87,2.1930493,102.2482203
361,412,ALDY HOTEL (CHINA TOWN),"No. 148, Jalan Bunga Raya, 75100 Melaka",Melaka,06-2813636,3,90,2.2002927,102.2516402
362,413,ALLSON HOTEL PUTRA NILAI,"PT 7182, Jalan BBN 1/2E, Bandar Baru Nilai, 71800 Nilai",Negeri Sembilan,06-799 8888,3,145,2.8133401,101.7922032
363,414,ALORA HOTEL,"B Tower, Bayan Point, 19 medan Kampung Relau 11900 Pulau Pinang",Pulau Pinang,+60 4-646 7777,3,136,5.333635,100.2944573
364,415,ALUNAN RESORT,"LOT 350, PETANI BEACH, PERHENTIAN ISLAND KECIL, 22300 BESUT",Terengganu,09-690 4336,3,81,5.895308,102.7206267
365,416,AMANSARI EXPRESS HOTEL,"9N, Jalan Tenteram, 80300 Johor Bahru",Johor,07-219 7777,3,144,1.461348,103.7690823
366,417,AMANSARI HOTEL CITY CENTRE,"No 49, Jalan Wong Ah Fook, 80000 Johor Bahru",Johor,07-219777,3,94,1.4639612,103.7619099
367,418,AMANSARI HOTEL DESARU,"NO. 127, JALAN KEMPAS 1, TAMAN DESARU UTAMA, 81930 BANDAR PENAWAR",Johor,07-828 0399,3,110,1.575166,104.204899
368,419,AMANSON SIGNATURE HOTEL,"LOT 82,83  84, BANDAR PASARAYA BATU 4, JALAN UTARA 90000 SANDAKAN",Sabah,089-218555,3,69,5.8569978,118.0788206
369,420,AMERIN HOTEL,"NO.35 PERSIARAN PERLING 1, TAMAN PERLING, 81200 JOHOR BAHRU",Johor,07-2330333,3,98,1.4967538,103.682894
370,421,AMVERTON HERITAGE RESORT,"Jalan Puteri 1, Ayer Keroh, 75450 Alor Gajah",Melaka,06-2323333,3,72,2.2586982,102.2886523
371,422,ANCASA HOTEL KUALA LUMPUR,"Jalan Tun Tan Cheng Lock, 50786 Kuala Lumpur",Wilayah Persekutuan Kuala Lumpur,03-2026 6060,3,65,3.1452238,101.6971489
372,424,ANGULLIA BEACH HOUSE RESORT,"KM 20, Kg. Rhu Muda, Seberang Marang, 21600 Marang",Terengganu,09-6181322,3,120,5.192233,103.218809
373,425,ANIKA INN KLUANG,"298, Jalan Haji Manan, Tmn Lian Seng, 86000 Kluang",Johor,07-773 0888,3,80,2.04238,103.3169817
374,426,ARECA HOTEL PENANG,"NO.5, JALAN KHOO SIAN EWE, 10050 GEORGETOWN",Pulau Pinang,04-261 0081 / 0050,3,119,5.4172977,100.3300992
375,427,ARENAA DELUXE HOTEL,"No. 222 (LoT 639), Jalan Ujong Pasir, 75050",Melaka,06-288 3399,3,128,2.1875665,102.2687703
376,428,ARMENIAN ST HERITAGE HOTEL,"No 139, Lebuh Carnarvon, 10200 Georgetown",Pulau Pinang,05-7176331,3,99,5.4154161,100.3353646
377,429,AROMA BUSINESS HOTEL,"11, Butterworth Business City Centre, Jalan Raja Uda, 12300 Butterworth",Pulau Pinang,04-3239111,3,135,5.4264794,100.3829804
378,430,ARWANA PERHENTIAN ECO RESORT  BEACH CHALET,"Lot 181, Teluk Dalam, Pulau Perhentian, 22300 Besut",Terengganu,09-6911888,3,90,5.9037879,102.7537372
379,431,ASIATIC HOTEL,"NO. 2E, JALAN KLJ 4, TAMAN KOTA LAKSAMAN JAYA,, 75200",Melaka,06-775 6888,3,99,2.1976971,102.2326228
380,432,ATLANTIC PARK HOTEL,"9830, Bukit Baru, 75150 Melaka",Melaka,06-2810989,3,94,2.2164061,102.2680658
381,433,AWANGS BEACH RESORT AND RESTAURANT,"85, Rantau Panjang, 23050 Dungun",Terengganu,09-8443500/012-9898500,3,97,4.7645344,103.4183495
382,434,AZAM HOTEL ,"1872 A  B, Jalan Padang Garong , 15000 Kota Bharu",Kelantan,09-7478 800,3,61,6.1279855,102.2409468
383,435,BAHANG BAY HOTEL,"No.15, Jalan Teluk Bahang, 11040 Teluk Bahang,",Pulau Pinang,04-888 1000,3,141,5.4595774,100.2181173
384,436,BAYU BEACH RESORT,"4 1/2 Miles, Jalan Pantai, Si Rusa, 71050 Port Dickson",Negeri Sembilan,06-647 3703,3,108,2.4180829,101.8605017
385,437,BESPOKE HOTEL,"BLOCK F SETIAWALK PERSIARAN WAWASAN, PUSAT BANDAR PUCHONG, 47160 PUCHONG",Selangor,03-8084 1111,3,140,3.0307746,101.6165682
386,438,BEST WESTERN I-CITY SHAH ALAM,"A-GF-01, No. 6, Persiaran Multimedia, City Park, I-City,40000 Shah Alam",Selangor,03-5521 9000,3,100,3.0657469,101.4835275
387,439,BEST WESTERN PANGKOR HOTEL APARTMENT @ MARINA ISLAND,"KM1, Marina Island Teluk Muruh, 32200 Lumut",Perak,05-6832881,3,69,4.2079723,100.601358
388,440,BEST WESTERN WANA RIVERSIDE HOTEL,"No 2, Jalan Munshi Abdullah, 75100 Melaka Tengah",Melaka,06-2897888,3,117,2.2002754,102.2484402
389,441,BILIT RAINFOREST LODGE,"Kampung Bilit Seberang. Jalan Sukau, 90050 Kinabatangan",Sabah,089-202399/202388,3,145,5.558314,118.0748506
390,442,BON TON RESORT LANGKAWI,"LOT 1047 PANTAI CENANG, 07000 LANGKAWI",Kedah,04-955 3643,3,88,6.2955916,99.7228132
391,443,BORNEO DINAWAN ISLAND RESORT,"Pulau Dinawan, Off Kinarut, District of Papar, 89600 Papar",Sabah,016-579 8181,3,61,5.8369702,116.0432527
392,444,BORNEO DIVERS MABUL RESORT ,"Pulau Mabul, Semporna , 91308 Semporna ",Sabah,089-797088,3,73,4.4802593,118.6165312
393,450,BRUMATSU HOTEL,"E2324-2326, Jalan. Nong Ah Jang, 25100 Kuantan",Pahang,09-5157 657,3,80,3.803523,103.31807
394,451,BUKIT BENDERA RESORT,"8, Lorong Bendera 1F, Taman Bukit Bendera, 28400 Mentakab",Pahang,07-268 7406,3,110,3.4744579,102.3398191
395,452,BUMIMAS HOTEL,"B8-B10, Jalan. Bukit Ubi 1, 25200 Kuantan",Pahang,09-5150803,3,118,3.8163489,103.3202266
396,453,C039HAYA HOTEL,"Lot 7, Jalan tanjung Aru, 88100 Kota Kinabalu",Sabah,088-211 858,3,87,5.9533602,116.0553406
397,454,CASA RACHADO RESORT,"Tanjung Biru, Batu 10, Jalan Pantai, Si Rusa, 71050 Port Dickson",Negeri Sembilan,06-662 5177,3,132,2.4156852,101.8574301
398,455,CATHAY HOTEL,"15, Leith Street, 10200 Georgetown",Pulau Pinang,04-2626271,3,131,5.420798,100.334847
399,456,CELYN HOTEL CITY MALL ,"HSE No. 25, Lot 68, Lorong Gunung Ulu Merak 2, Taman Hill Top, Luyang, 88300 Kota Kinabalu ",Sabah,088-527800,3,126,5.9495312,116.0945829
400,457,CELYN RESORT KINABALU,"Kampung Sumarah, Kundasang, 89300 Ranau",Sabah,088-247763,3,76,5.986033,116.5783072
401,458,CENTURY PINES RESORT,"Lot 42, Jalan Masjid, Tanah Rata, 39000 Cameron Highlands",Pahang,05-491 5115,3,119,4.4731654,101.3802066
402,459,CERANA VILLA RESORT  MEDAN IKAN BAKAR,"No. 272, Kampung Pengkalan Datu Sering, 16150 Kota Bharu",Kelantan,09-7659697,3,53,6.10508,102.334934
403,460,CHARISMA HOTEL,"B156, Lorong IM8/33, Bandar Indera Mahkota,25200 Kuantan",Pahang,09-5730888,3,80,3.830188,103.306639
404,461,CHERATING LAGOONA VILLA RESORT,"KM 43, Jalan Kuantan - Kemaman, 26080 Kuantan",Pahang,017-830 6614,3,93,4.1205241,103.3839117
405,462,CHERENGIN HILLS CONVENTION  SPA RESORT,"Lot 5936 GM 197, Janda Baik, Mukim, 27520 Bentong",Pahang,09-233 0999,3,57,3.34108,101.83991
406,463,CHICWAN INN,"LOT 299, PARKCITY COMMERCIAL CENTRE (PHASE 4), 97000 BINTULU",Sarawak,086-317725,3,69,3.181518,113.0389459
407,464,CHILE HOTEL,"No 9-10, Jalan Kenari, Bandar Puchong Jaya, 41700 Puchong",Selangor,03-58919180,3,116,3.0456666,101.6213315
408,465,CINTA SAYANG GOLF  COUNTRY RESORT,"Persiaran Cinta Sayang, 08000 Sg. Petani",Kedah,04-441 4666,3,100,5.65717,100.5196416
409,466,CITADINES APPART HOTEL KUCHING,"Level 5-10, Lot 11232, Jalan Simpang Tiga, 93350 Kuching",Sarawak,082-281888,3,58,1.5289227,110.3596813
410,467,CITADINES DPULZE CYBERJAYA,"LINGKARAN CYBER POINT TIMUR, CYBER 12, 63000 CYBERJAYA",Selangor,03-86899810,3,143,2.9229704,101.6500341
411,468,CITITEL EXPRESS IPOH,"NO. 2, JALAN S.P SEENIVASAGAM, 30000 IPOH",Perak,05-208 2888,3,105,4.5994957,101.0780166
412,469,CITITEL EXPRESS KOTA KINABALU,"No. 1, Jalan Singgah Mata, Asia City, 88000 Kota Kinabalu",Sabah,088-521188,3,144,5.9770407,116.073822
413,470,CITITEL EXPRESS PENANG,"123, Lebuh Noordin,10300 Georgetown",Pulau Pinang,04-259 8118,3,98,5.4128854,100.3297939
414,471,CITITEL MID VALLEY,"Mid Valley City, Lingkaran Syed Putra, 59200 Kuala Lumpur",Wilayah Persekutuan Kuala Lumpur,03-2296 1188,3,125,3.1176854,101.6774338
415,472,CITY INN,"Blok K, Lot 1  2, CPL 16595, Bandar Baru, 91308 Kota Kinabalu",Sabah,089-784733,3,67,5.980408,116.0734568
416,473,CITY STAR HOTEL,"17, Jalan. Seniling 2, Tman Sri Kulai Baru 2, 81000 Kulai",Johor,07-6634922,3,108,1.6681146,103.5857984
417,474,CITY THEME HOTEL,"No.163, Jalan Laksamana Cheng Ho, 75000 Melaka",Melaka,06-286 5855,3,70,2.1947022,102.2618557
418,475,COMFORT HOTEL,"263, Taman Meru, Taman Bunga Melur , 41050 Klang",Selangor,03-33429296,3,66,3.0700179,101.4445619
419,476,COMFORT INN,"No.65, Changkat Bukit Bintang, 50200 Kuala Lumpur",Wilayah Persekutuan Kuala Lumpur,03-2141 3636,3,96,3.1467227,101.7090756
420,477,COMFORT TWO HOTEL,"330, 330-A, 330-B, 331, 331-A, 331-B, JALAN MELAKA RAYA 1, TAMAN MELAKA RAYA, 75000",Melaka,06-286 8989,3,54,2.1870233,102.2527099
421,478,CORAL REDANG ISLAND RESORT,"Lot 89  268, Pasir Panjang Pulau Redang, 20100 Kuala Terengganu",Terengganu,09-6236200,3,60,5.7833333,103.0333333
422,479,CORAL REDANG ISLAND RESORT,"No9, Jalan Kg Dalam 20000 Kuala Terengganu.",Terengganu,+60 9-630 7110,3,75,5.3339489,103.1437741
423,480,COURTYARD HOTEL,"G-800, 1 Borneo Hypermall, Jalan UMS , 88450 Kota Kinabalu ",Sabah,088-528228,3,78,6.0351724,116.128932
424,481,COZY HOTEL,"No. 175, Jalan Melaka Raya 14, Taman Melaka Raya, 75000 Melaka",Melaka,06-2847871,3,61,2.1868711,102.2592179
425,482,CROWN GARDEN HOTEL,"PT 302  303, Jalan Kebun Sultan, 15300 Kota Bharu",Kelantan,09-743 2228,3,109,6.1351682,102.2444827
426,483,CRYSTAL CROWN HOTEL,"117, Jalan Harimau Tarum, 80250 Johor Bahru",Johor,07-333 4422,3,75,1.4864313,103.7657695
427,484,CRYSTAL CROWN HOTEL HARBOUR VIEW PORT KLANG,"No 217, Persiaran Raja Muda Musa, 42000 Pelabuhan Klang",Selangor,03-3165 4422,3,136,3.0122505,101.4112936
428,485,CRYSTAL CROWN HOTEL KUALA LUMPUR,"No.3, Jalan Jambu Mawar off Jalan Kepong, Jinjang Selatan, 52000 Kuala Lumpur",Wilayah Persekutuan Kuala Lumpur,03-6259 4422,3,117,3.2040632,101.6681847
429,486,CRYSTAL LODGE,"124, Jalan Che Su, 15000 Kota Bharu",Kelantan,09-747 0888,3,93,6.1274065,102.2358093
430,487,D HOTEL,"No 526, Lebuh SIDC Mall, Seri Iskandar Business Centre,32610 Seri Iskandar",Perak,05-374888,3,145,4.358186,100.968923
431,488,D039MAWAR CHALET,"Taman Tasik Sri, 17500 Tanah Merah",Kelantan,09-955 6626,3,134,5.7893368,102.0946818
432,489,D039SORA BUSINESS HOTEL,"39, JALAN METRO SENDAYAN 1/2, 71950 BANDAR SERI SENDAYAN",Negeri Sembilan,06-7758888,3,68,2.6860666,101.846931
433,490,D039VIEW HOTEL,"No. 6  7, Jalan Jeti, Bandar Tepian Sungai, 86800 Mersing",Johor,07-7994072,3,143,2.4308465,103.8340282
434,491,DF HOTEL,"35  36, Ground Floor, Jalan MSJ 1, Medan Perniagaan Senawang Jaya, 70450 Seremban",Negeri Sembilan,019-998 6813,3,120,2.6882779,101.9864125
435,492,DA SOM INN,"No. 28, Jalan Tukang Emas, 75200 Melaka",Melaka,06-286 6577,3,75,2.1969049,102.2477536
436,493,DAMAR INN,"No 4  5, Dataran Damar, KM 2, Lebuhraya Kuala Krai- Gua Musang, 18000 Kuala Krai",Kelantan,09-960 3221,3,108,5.5400421,102.205469
437,494,DAYANG BAY SERVICED APARTMENT  RESORT ,"No. 15 Persiaran Pelangi 07000 Kuah, Langkawi ",Kedah,04-966 5515,3,107,6.3254756,99.8364
438,495,DE BARON RESORT,"Bandar Baru BARON Kuah, 07000 Langkawi, Kedah",Kedah,04-966 2222,3,125,6.3172,99.8497
439,496,DE ELEMENTS BUSINESS HOTEL,"NO 30, Jln Tasik Utama 10, Medan Niaga Tasik Damai,57000",Wilayah Persekutuan Kuala Lumpur,03-90542020,3,126,3.06151,101.709946
440,497,DE OCEAN HOTEL,"No. 174, Jalan Laksamana Cheng Ho, 75000 Melaka Tengah",Melaka,06-2843333,3,64,2.1936827,102.2624369
441,498,DE PALMA HOTEL AMPANG,"Jalan Selaman 1/2, Palm Square, Ampang Point, Jalan Ampang, 68000 Ampang",Selangor,03-42707070,3,129,3.156797,101.7529678
442,499,DE PALMA INN KUALA SELANGOR,"Jalan Tanjung Keramat, 45000 Kuala Selangor",Selangor,03-32897070,3,138,3.3460969,101.2423548
443,500,DELIGHTFUL HOLIDAY INN,"Ranau Commercial Shoplot, KM 2, Jalan Ranau / Telupid, P.o.Box 328, 89308 Ranau",Sabah,088-875 989,3,120,5.8825954,118.0357368
444,501,DEMONG BEACH RESORT,"Lot 25, Tanjong Demong, Jalan Bukit Keluang, 22200 Besut",Terengganu,09-6955500,3,108,5.8114904,102.5906787
445,514,DYNASTY INN,"Lot 2618  2619, Padang Enggang, Wakaf Che Yeh, 15000 Kota Bharu",Kelantan,09-7461616,3,59,6.079981,102.2428822
446,515,E-HOTEL,"NO.31  32, JALAN PDS 1, PD SUNGGALA GATEWAY, 71050 PORT DICKSON",Negeri Sembilan,06-662 6688,3,140,2.475826,101.856148
447,516,E-RED HOTEL,LOT 113 SEKSYEN 19 JALAN HAJI ABDUL AZIZ 25000 KUANTAN,Pahang,09-516 3331,3,79,3.8081914,103.3294688
448,517,EAGLE RANCH RESORT PORT DICKSON,"Lot 544, Batu 14, Jalan Pantai, 71250 Port Dickson",Negeri Sembilan,06-661 0495,3,63,2.4952375,101.8400159
449,518,EASTWOOD VALLEY GOLF  COUNTRY CLUB,"Lot 1379, Block 17, Jalan Miri By-Pass, 98008 Miri",Sarawak,085-421 010,3,74,4.376632,114.0126161
450,519,EDC HOTEL KUALA LUMPUR,"348, JALAN RAJA LAUT, 50350",Wilayah Persekutuan Kuala Lumpur,03-4050 3601,3,135,3.1649167,101.6963705
451,520,EDC HOTELS  RESORTS,"EDC-UUM Universiti Utara Malaysia, 06010 Changlun",Kedah,04-9288888,3,95,6.4484176,100.5096811
452,521,EIGHT DAYS HOTEL,"24, 26, 27  28, Block A, Permas Mall, 81750 Johor Bahru",Johor,07-3889889,3,53,1.4967255,103.8179355
453,522,ELEMENTS HOTEL GOHTONG ,"1-8, Jalan Jati, Taman Gantong Jaya,69000 Genting Highlands",Pahang,010-259 6800,3,99,3.39861,101.768596
454,523,EMPRESS HOTEL SEPANG,"Jalan ST1C/7, Medan 88, Bandar Baru Salak Tinggi, 43900 Sepang",Selangor,03-8706 7777,3,56,2.8118317,101.7376577
455,524,EQ FERRINGHI HOTEL,"No. 17 Lorong Sg Emas, 11100 Batu Ferringhi",Pulau Pinang,04-8851533,3,89,5.475738,100.2531301
456,525,ERYA BY SURIA CHERATING,"KM 32.5, Jalan. Kuantan Kemaman, 26080 Kuantan",Pahang,09-584 7000,3,105,4.0386655,103.3945965
457,526,ERYA BY SURIA HOT SPRING RESORT BENTONG,"Lot 2527, Mukim Bentong, Jalan Kuala Lumpur Lama,26700 Bentong",Pahang,09-2210200,3,108,3.4925628,101.9121032
458,527,FANTASY HOTEL,"G8, Jalan PM7, Plaza Mahkota, Melaka Raya, 75000",Melaka,06-292 6028,3,93,2.2200328,102.3199045
459,528,FELDA RESIDENCE KUALA TERENGGANU,"Jalan Hiliran, 20300 Kuala Terengganu",Terengganu,09-6321111,3,64,5.3180163,103.1280864
460,529,FELDA RESIDENCE SAHABAT,"Peti Surat No.2, Pejabat Pos Cenderawasih, 91150 Lahad Datu",Sabah,089-811 300,3,88,5.1533779,119.0079187
461,530,FELDA RESIDENCE TANJUNG LEMAN,"LOT PTD 144, TANJUNG LEMAN, 86810 MERSING,",Johor,07-7911155,3,125,2.1439313,104.0076267
462,531,FELDA RESIDENCE TEKAM,"Tun Razak Agricultural Research Centre, Sungai Tekam, P.O. Box 11, 27000 Jerantut",Pahang,09-471 8182,3,50,3.932739356,102.5815308
463,532,FIFTY SIX HOTEL,"Lot 2228  2229, Section 64, KTLD Off Jalan Tun Jugah, 93350 Kuching",Sarawak,082-575 666,3,53,1.515134,110.354363
464,533,FIRST WORLD HOTEL,"Genting Highlands Resort, 69000 Genting Highland",Pahang,03-6101 1118,3,126,3.4235583,101.7916268
465,534,"FIRST WORLD HOTEL, TOWER 3","GENTING HIGHLAND RESORT, 69000 GENTING HIGHLANDS",Pahang,03-610 1118,3,110,3.4235583,101.7916268
466,535,FISHERMAN HOTEL,"Bandar Ramai-Ramai, Batu 1.5, Jalan Leila, P.O. Box 2874 , 90732 Sandakan ",Sabah,089-201818,3,71,5.8372186,118.1012391
467,536,FLAMINGO HOTEL BY THE LAKE KUALA LUMPUR,"No 5, Tasek Ampang, Jalan Hulu Kelang, 68000 Ampang",Selangor,03-4256 3288,3,140,3.1750962,101.7574847
468,537,FULLY HOTEL,"41, 47 Jalan Teratai 2, Tmn Johor Jaya, 81100 Johor Bahru",Johor,07-352 6318,3,89,1.5362386,103.8101866
469,538,FULLY HOUSE HOTEL,"18  20, Jalan Setia Tropika 1/1, Tmn Setia Tropika, 81200 Johor Bahru",Johor,07-2323710,3,131,1.5445764,103.7104532
470,539,FULLY WELL HOTEL,"No.71, Jalan Idris, Kampar, 31900 Kinta ",Perak,05-466 6363,3,105,4.3121029,101.1523286
471,540,GALAXY HOTEL,"No.42, Lorong Tambun Permai 1, Puasat Perniagaan Tambun Permai 14100 Simpang 4 Kangkung",Pulau Pinang,04-5882911,3,63,5.2759468,100.4586223
472,541,GAYA CENTRE HOTEL ,"Jalan Tun Fuad Stephens, P.O Box 13751, 88843 Kota Kinabalu ",Sabah,088-245 567,3,59,6.0137368,116.1129747
473,542,GEM BEACH RESORT,"Lot 2135, Mukim Batu Rakit, Mengambang Lekar, 21020 Kuala Terengganu",Terengganu,09-6695910,3,140,5.4504972,103.0372323
474,543,GENTING VIEW RESORT,"KM 10, Genting Highlands, 69000 Genting Highland",Pahang,03-6106 0808,3,69,3.4235583,101.7916268
475,544,GLORIA HOTEL,"No.27, Brooke Road, 98000 Miri",Sarawak,085-416669,3,108,4.394847,113.988514
476,545,GLORIOUS STRATIS HOTEL,"17, 17-1, 19, 19-1, JALAN KESIDANG 2/24, TAMANA KESIDANG SEKSYEN2, 75200 ",Melaka,06-334 1899,3,77,2.2168723,102.2315352
477,546,GLOW PENANG,"101, Jalan Macalister, 10400 Georgetown",Pulau Pinang,04-226 0084,3,102,5.4164743,100.3228426
478,547,GM CITY HOTEL ,"No. 23, Jalan Kasuarin 2/KS7 Bandar Botanik 41200 Klang ",Selangor,03-3189388,3,77,2.987855,101.4400822
479,548,GOLDEN BAY HOTEL,"No. 2, 2A, 2B, Jalan Melaka Raya 20, Taman Melaka Raya, 75000 Melaka",Melaka,06-2828550,3,68,2.1841511,102.260139
480,549,GOLDEN ROOF HOTEL,"No 2, Jalan Ampang Baru,31350 Ipoh",Perak,05-3128588,3,74,4.6051788,101.1422552
481,550,GOODHOPE HOTEL,"No.1, Jalan Ronggeng 5, Tmn Skudai Baru, 81300 Skudai",Johor,07-557 2828,3,131,1.5330633,103.6657983
482,551,GRAND BELLLO HOTEL,"NO. 49  49A-X, JALAN LUMBA KUDA, 80300 JOHOR BAHRU",Johor,07-207 9988,3,118,1.4636115,103.7686387
483,552,GRAND BORNEO HOTEL,"TA-00-01, 1 Borneo Hypermall, Jalan UMS, 88400 Kota Kinabalu",Sabah,088-526 888,3,122,6.0351724,116.128932
484,553,GRAND CITY HOTEL,"B 90, Sri Pahang Business Centre, , 25300 Kuantan",Pahang,09-517 2151,3,92,3.8562805,103.3067562
485,554,GRAND CONTINENTAL HOTEL,"Lot 42, Secion 46, Jalan Ban Hock, 93400 Kuching",Sarawak,082-230399,3,121,1.5522013,110.3534278
486,555,GRAND DORMANI RAJAH COURT HOTEL,"Lot 6115, Section 64, Jalan Tun Razak, 93450 Kuching",Sarawak,082-484799,3,114,1.5500826,110.3860445
487,556,GRAND PARADISE HOTEL ,"No. 28-28A, Jalan Tok Lam , 20400 Kuala Terengganu ",Terengganu,09-622 8888,3,128,5.3344325,103.139068
488,557,GRAND PARAGON HOTEL,"No 18, Jalan Harimau, Tmn Century, 80250 Johor Bahru",Johor,07-2685222,3,58,1.4812269,103.7619099
489,558,GRAND PUTERI HOTEL,"PT3981, JALAN MASJID ABIDIN, 20100",Terengganu,09-6215555,3,105,5.3333924,103.1374588
490,559,GRAND SENTOSA HOTEL,"Ground Floor, Block A, Plaza Sentosa, Jalan Sutera, Tmn Sentosa, 80150 Johor Bahru",Johor,07-331 5888,3,127,1.492791,103.768673
491,560,GUNONG LEDANG RESORT,"Batu 28, Jalan Segamat, Sagil, 84020 Tangkak",Johor,06-977 2888 / 3888,3,99,2.4761978,102.9120615
492,561,H-5 INN,"Shoplot No. 13-15 of Parent Lot 2646, Jalan Tun Ahmad Zaidi, Parkcity, 97000 Bintulu",Sarawak,086-310 005,3,142,3.1815035,113.0397771
493,562,H.B VILLAGE RESORT,"Pantai Cahaya Bulan, 15350 Kota Bharu",Kelantan,011-5652 7409,3,54,6.1999952,102.2672115
494,563,HALLMARK CROWN HOTEL,"170  172, Jalan Parameswara off Jalan Bendahara, 75000 Bandar Hilir",Melaka,06-2813855,3,100,2.1888329,102.2573993
495,564,HALLMARK REGENCY HOTEL,"No. 16, Jalan Harimau,80250 Johor Bahru",Johor,07-3318822,3,100,1.4809307,103.762272
496,565,HAMIN LODGE / STAY INN,"Lot 19 Ground Floor, Blok C Sedco Complex, 88830 Kota Kinabalu",Sabah,088-282008,3,61,5.9739204,116.0677088
497,566,HARBOUR INN,"No. 28, Jalan Melaka Raya 35, Tmn Melaka Raya, 75000 Melaka",Melaka,06-281 1929,3,106,2.1831059,102.2567242
498,567,HARBOUR VIEW HOTEL,"Lorong Temple, P.O. Box A 1368, 93100 Kuching",Sarawak,082-274666,3,63,1.5432851,110.336213
499,568,HELLO HOTEL,"No. 2A-1, Jalan 18/32, Taman Seri Serdang, Seri Kembangan",Selangor,012-7135108,3,118,3.0092451,101.713775
500,569,HERITAGE HOTEL IPOH,"Jalan Raja Di Hilir, 30350 Kinta",Perak,05-242 8888,3,87,4.5974638,101.1047814
501,570,HII - 5 HOTEL,"Lot 7, Block A, Sedco Complex, Jalan Liman Diki, Kg Air, 88000 Kota Kinabalu",Sabah,088-252521,3,59,5.9783583,116.0736188
502,571,HILTON BATANG AI LONG HOUSE RESORT,"Lubok Antu, 95900 Sri Aman",Sarawak,083-584388,3,116,1.043355,111.8535959
503,572,HILTON GARDEN INN KUALA LUMPUR,"NO. 449, JALAN TUANKU ABDUL RAHMAN, 50100",Wilayah Persekutuan Kuala Lumpur,03-2778 8888,3,82,3.1644155,101.6985045
504,573,HOLIDAY INN EXPRESS KUALA LUMPUR CITY CENTER,"84 JALAN RAJA CHULAN, 50200",Wilayah Persekutuan Kuala Lumpur,03-20288888,3,112,3.1507827,101.7086975
505,574,HOLIDAY VILLA APARTMENT SUITES KUALA LUMPUR,"225, Jalan Ampang, 50450 Kuala Lumpur",Wilayah Persekutuan Kuala Lumpur,03-21799000,3,127,3.1594758,101.7260348
506,575,HOME BEACH VILLAGE RESORT,"Lot 6667, Kg. Baru Badang, Pantai Cahaya Bulan,13530 Kota Bharu",Kelantan,09-7734993,3,103,6.1962687,102.2737696
507,576,HOOVER HOTEL,"No.92, Keppel Road, P.O Box 43, 97000 Bintulu",Sarawak,086-337166,3,132,3.2701653,113.2585674
508,577,HOOVER HOTEL,"No.139, Club Road, 95000 Sri Aman",Sarawak,086-337166,3,59,1.1649423,111.3321974
509,578,HOTEL 18 CARAT ,"No 52, 54  56 Jalan CU 2 Taman Cheng Utama 75250 Durian Tunggal",Melaka,06-3363171,3,63,2.260825,102.22312
510,579,HOTEL ACCORDIAN,"No.114-A, Jalan Bendahara, 75100 Melaka",Melaka,06-2821911,3,98,2.197364,102.2519955
511,580,HOTEL AIFA,"U0217, Jalan Tun Mustapha, 87007 Labuan",Wilayah Persekutuan Labuan,087-424888,3,90,5.2783656,115.243405
512,581,HOTEL ALONTO,"Lot 52, Ground, 1st  2nd Floor, Lot 53 (1st  2nd Floor), Blok HS-5, Phase 1D, Sandakan Harbour Square, 90000 Sandakan",Sabah,089-255 855,3,135,5.839444,118.1171729
513,582,HOTEL ARISSA,"NO.2, JALAN PELANDUK PUTIH 75300",Melaka,06-288 0303,3,138,2.2026408,102.2417707
514,583,HOTEL ASIA CITY,"Lot 1-3, Blok A, Asia City Phase 1A, Jalan. Kg. Air 2, 88000 Kota Kinabalu",Sabah,088-264 400,3,110,5.9790499,116.07439
515,584,HOTEL AVENUE,"A3476, Lorong Seri Kuantan 22, Perkampungan Seri Kuantan, 25250 Kuantan",Pahang,09-566 0101/016-980 0101,3,106,3.823906,103.334441
516,585,HOTEL BESTARI,"JC 526  JC 527, TINGKAT 2, JALAN BESTARI 5, SEKSYEN 2, BANDAR JASIN BESTARI, 77000 JASIN",Melaka,06-5292355,3,82,2.277159,102.3903597
517,586,HOTEL CAPITOL KUALA LUMPUR,"Jalan Bulan, Off Jalan Bukit Bintang, 55100 Kuala Lumpur",Wilayah Persekutuan Kuala Lumpur,03-21437000,3,74,3.1450473,101.7090969
518,587,HOTEL CASA DE LA ROSA,"Lot 48, Jalan Circular, Tanah Rata, 39000 Cameron Highlands",Pahang,05-491 1333,3,87,4.4882448,101.3828247
519,588,HOTEL CATHAYANA,"A 41/3, LORONG TUN ISMAIL 5, 25000 KUANTAN",Pahang,09-517 2000,3,101,3.811359,103.325905
520,589,HOTEL CAUSEWAY,"No. 6A-6F, Jalan Meldrum, 80000 Johor Bahru",Johor,07-2248811,3,97,1.4588451,103.7658829
521,590,HOTEL CLASSIC,"69, Jalan Ali, 84000 Muar",Johor,06-9533888,3,104,2.0448178,102.566361
522,591,HOTEL CONTINENTAL,"No.5, Jalan Penang, 10000 Georgetown",Pulau Pinang,04 - 2636388,3,107,5.4219784,100.3346596
523,592,HOTEL CRYSTAL CROWN HARBOUR VIEW PORT KLANG,"217, PERSIARAN RAJA MUDA MUSA",Selangor,03-3165 4422,3,130,3.0122505,101.4112936
524,593,HOTEL CRYSTAL MAS,"No. 16, 18, 20 Jalan Dedap 9, Taman Johor Jaya, 81100 Johor Bahru",Johor,07-3511818,3,76,1.5398349,103.8057958
525,594,HOTEL D NORTHSTAR,"LOT 28-33, BLOCK 8 PRIMA SQUARE, BATU 4, JALAN UTARA PETI SURAT 280 PEJABAT POS JALAN UTARA, 90307 SANDAKAN, SABAH ",Sabah,089-229 977,3,76,5.8577579,118.084695
526,595,HOTEL DE LEON,"Blok L, Lot 1-6, Darvel Bay Commercial Centre, 91100 Lahad Datu,",Sabah,089-881222,3,68,4.8927939,118.4409644
527,596,HOTEL DE'LA FERNS CAMERON HIGHLANDS,"Batu 39 Jalan Besar, Cameron Highlands , 39000 Cameron Highlands",Pahang,05-491 4888,3,111,4.4704996,101.3767003
528,597,HOTEL EMAS,"TB 2103, Jalan.Utara, Peti Surat 569, 91008 Tawau",Sabah,089-762000,3,93,4.2510403,117.8822637
529,598,HOTEL FULIYEAN,"14, Jalan Berek Taiping, 34000 Larut dan Matang",Perak,05-806 8648,3,120,4.6029516,101.0659685
530,599,HOTEL FURAMA,"30, Jalan Peng Loong, 34000 Taiping",Perak,05-807 1077,3,97,4.8387967,100.7436084
531,600,HOTEL GRAND CONTINENTAL,"Lot 398, Mukim Kuah, 07000 Langkawi",Kedah,04-966 0333,3,105,6.3270601,99.8395579
532,601,HOTEL GRAND CONTINENTAL,"Lot 134-141, Jalan Sultan Badlishah, 05000 Alor Setar",Kedah,04-733 5917,3,65,6.1183237,100.3681396
533,602,HOTEL GRAND CONTINENTAL KUANTAN,"Jalan. Gambut, 25000 Kuantan",Pahang,09-5158888,3,63,3.8114461,103.328389
534,603,HOTEL GRAND KAMPAR,"2188, Jalan Timah, Bandar Baru Kampar, 31900 Kampar",Perak,05-466 2111,3,111,4.32794,101.1449742
535,604,HOTEL GREEN GARDEN,"Lot 13, Section 2, Main Road Brinchang, 39100 Cameron Highlands",Pahang,05-491 5824,3,128,4.49105,101.3885071
536,605,HOTEL HARMONI,"P01-03, Jalan Harmoni, Taman Harmoni, 28700 Bentong",Pahang,09-223 6020,3,118,3.5048655,101.9210818
537,606,HOTEL HEXAN,"Lot A2-A5, Haxan Light Industrial Centre, P.S. 451, 89108 Kota Marudu",Sabah,088-663377,3,85,6.4958249,116.7609682
538,607,HOTEL IMPIANA ROMPIN,"No.11, No. 2 (Tingkat 1), Lorong Impiana Rompin 8, Taman Impiana, 26800 Kuala Rompin",Pahang,09-414 3399,3,119,2.7994375,103.4679421
539,608,HOTEL JUTA,"Jalan Milimewa Lama, Lock Bag No.1, 89009 Keningau",Sabah,087-337888,3,143,5.3340704,116.1531392
540,609,HOTEL KAJANG,"177, Jalan Mendaling, 43000 Kajang",Selangor,03-87366983,3,56,2.9923391,101.7866808
541,610,HOTEL KANGAR,"No 16-18, Jalan Penjara, 01000 Kangar",Perlis,04-9767225,3,91,6.4395549,100.1951737
542,611,HOTEL KIARA INN,"Lot 121-B Pusat Perniagaan Kiara, Bahau, 72100 Bahau",Negeri Sembilan,06-454 8333,3,112,2.810507,102.3957749
543,612,HOTEL KOBEMAS MELAKA,"JALAN MITC PRIMA 1, HANG TUAH JAYA, 75450",Melaka,06-253 5353,3,120,2.2679402,102.2847096
544,613,HOTEL KOSMA,"No. 59, Jln. Hj. Abdul Aziz,25000 Kuantan		",Pahang,09-516 2214,3,128,3.8092337,103.3302014
545,614,HOTEL KOTA LODGE,26  26A JALAN KOTA LAKSAMANA 3 TAMAN KOTA LAKSAMANA,Melaka,06-2816512,3,78,2.1939299,102.2448646
546,615,HOTEL LANGKASUKA LANGKAWI,"Batu 3/4, A 14-15 Pokok Asam, Kuah, 07000 Langkawi",Kedah,04-966 6828,3,71,6.35,99.8
547,616,HOTEL LINTAS PLAZA,"No. 26, Lot 95  96, Lintas Plaza PH2C, Jalan Lintas, 88300 Kota Kinabalu",Sabah,088-256788,3,115,5.9763772,116.1142187
548,617,HOTEL LISA DE INN,"No 2, Jalan Harapan 17/47, 46400 Petaling Jaya",Selangor,03-7955 3636,3,78,3.1227387,101.6289701
549,618,HOTEL LUTANA,"Lot 1, Blok J, Bandar Ramai-Ramai, P.O. Box 839, 90000 Sandakan",Sabah,089-272111,3,95,5.835241,118.1034823
550,619,HOTEL MALAYSIA,"7, Jalan Penang, 10000 Georgetown",Pulau Pinang,04 - 263 3311,3,83,5.4216979,100.3342584
551,620,HOTEL MALIM JAYA,"No. 87  89, Jalan Suria 4, Taman Malim Jaya, 75250 Melaka",Melaka,06-335 5171,3,82,2.2376394,102.2340631
552,621,HOTEL MALURI,"No 1, Jalan Permaisuri, Taman Maluri, Cheras 55100 Kuala Lumpur",Wilayah Persekutuan Kuala Lumpur,03-9287 8833,3,64,3.1285216,101.7297384
553,622,HOTEL MANHATTAN,"PUSAT PERNIAGAAN PENGKALAN PUTRA, JALAN PASIR PUTEH, 31650 IPOH",Perak,05-226 1128,3,81,4.553146,101.0751959
554,623,HOTEL MERLOON,"92-98, Jalan Mustapha Al-Bakri, 30300 Ipoh",Perak,05-254 1363,3,52,4.594518,101.086552
555,624,HOTEL MESRA,"NO.3  4, TELUK KEMANG SQUARE, BATU 7, TELUK KEMANG, 71050 SI RUSA, PORT DICKSON",Negeri Sembilan,06-662 1855,3,82,2.454562,101.8599476
556,625,HOTEL METRASQUARE ,"Jalan PKAK 1  PKAK 2, Pusat Komersial Ayer Keroh, 75450 Ayer Keroh,",Melaka,06-318 3399,3,85,2.2765646,102.2931058
557,677,HOTEL VISTA,"K-157, Tingkat 1, 2 dan 3, Jalan Sulaiman 1, 24000 Kemaman",Terengganu,09-8585888,3,82,5.3333,103.1482
558,678,HOTEL YL,"PT 22966, No. 11, Jalan 4, Taman Jasmin, 43000 Kajang ",Selangor,03-87346696,3,127,2.9931238,101.8006859
559,679,HOTEL YY318,"38 Jalan Pudu,50200",Wilayah Persekutuan Kuala Lumpur,03-21488318,3,65,3.1461197,101.7012475
560,680,HOTEL ZUHRA,"No.103, Jalan Kg. Nyabor, 96000 Sibu",Sarawak,085-755711,3,59,2.2920739,111.8261755
561,681,HPL APARTMENT SDN BHD,"U0381, Jalan Bunga Anggerik, 87000 Labuan",Wilayah Persekutuan Labuan,087-583533,3,106,5.2782616,115.2456255
562,682,IBIS STYLE KUALA LUMPUR SRI DAMANSARA,"NO. 5, JALAN CEMPAKA 12/5, BANDAR SRI DAMANSARA PJU 9, 52200 KUALA LUMPUR",Wilayah Persekutuan Kuala Lumpur,03-6287 0888,3,116,3.1978339,101.609814
563,683,IBIS STYLES IPOH HOTEL,"No 2-22, Jalan Chung On Siew, Taman Jubilee,30250 Ipoh",Perak,05-2416888,3,103,4.5915774,101.0862601
564,684,IBIS STYLES KOTA KINABALU HOTEL,"NO. 1, JALAN TAIPAN 28, INANAM, 88450 KOTA KINABALU",Sabah,088-285 888,3,65,5.9937672,116.1395897
565,685,IBIS STYLES KUALA LUMPUR CHERAS,"Jalan C180/1, Dataran C180, Hulu Langat, 43200 Hulu Langat",Selangor,03-9086 8888,3,119,3.034669,101.766448
566,686,IMPERIAL INTERNATIONAL HOTEL,"Tingkat Bawah, Blok D, Warisan Square, Jalan Tun Fuad Stephens, 88000 Kota Kinabalu",Sabah,089-522888,3,77,5.9786875,116.07042
567,687,IMPERIAL RIVERBANK HOTEL,"Section 48, KTLD Jalan Tunku Abdul Rahman, 93100 Kuching",Sarawak,082-230 033,3,94,1.5582181,110.3515528
568,688,IMPIAN MORIB HOTEL,"Lot 183  184, Jalan. Morib, 42700 Kuala Langat",Selangor,03-31982070,3,94,2.751226,101.4436451
569,689,INNB PARK HOTEL,"102-106 JALAN IMBI, BUKIT BINTANG, 55100",Wilayah Persekutuan Kuala Lumpur,03-2856 7257,3,133,3.145,101.7138889
570,690,INTAN BEACH RESORT SDN BHD,"898-N, Lorong Dato Jaya, Jalan Haji Busu, Batu Burok, 20400 Kuala Terengganu",Terengganu,09-6318899,3,65,5.3166459,103.1559498
571,691,INTEKMA RESORT  CONVENTION CENTRE,"Persiaran Raja Muda, Seksyen 7, 40000 Shah Alam",Selangor,03-55225000,3,125,3.0706035,101.5069187
572,692,IPOH TIMES INN HOTEL,"97-99, Jalan Medan Ipoh 1A, Medan Ipoh Bistari, 31400 Ipoh",Perak,05-547 2977,3,136,4.6204369,101.1166566
573,693,JB CITY HOTEL,"195-K-195K3, 195L-195L3, 195M-195M3, Jlaan Skudai, batu 41/2, Kampung Skudai Kiri, 81200 Johor Bahru",Johor,07-2367191,3,117,1.4973451,103.700785
574,694,JESSELTON HOTEL,"69, Jalan Gaya, 88000 Kota Kinabalu",Sabah,088-223333,3,56,5.9850923,116.0779613
575,695,JINHOLD APARTMENT HOTEL,"LOT 7920, JALAN TANJONG BATU, 97000 BINTULU",Sarawak,082-281 888,3,113,3.1982029,113.0468986
576,696,JINHOLD APARTMENT HOTEL SDN BHD,"Lot 7920 Jalan Tanjong Batu, Block 31, Kemena Land District, 97000 Bintulu",Sarawak,086-318 333,3,96,3.1981706,113.0468475
577,697,KAPITAN KONGSI HOTEL,"NO. 2A, JALAN KLJ 10, TAMAN KOTA LAKSAMANA JAYA, 75200 ",Melaka,06-775 5555,3,110,2.2003761,102.2307941
578,698,KARAK ORCHARD RESORTS,"KM14, Jalan Telemong Sungai Perdak 28620",Pahang,012-730 8919,3,76,3.312989,102.0613506
579,699,KERTEH INN,"Lot 833, Kg. Baru Kerteh, 24000 Kemaman",Terengganu,09-8263080,3,77,4.424558,103.437221
580,700,KERTEH LODGE,"Blok 24A, Bandar Baru Kerteh, 24300 Kemaman",Terengganu,09-826 4307,3,132,4.53432,103.4245609
581,701,KIMBERLEY HOTEL,"NO. 36, G-02, JALAN SUNGAI UJUNG, 10100 GEORGETOWN",Pulau Pinang,04-263 6688,3,137,5.4162233,100.3325002
582,702,KINABALU DAYA HOTEL,"Blok 9, Jalan Pantai, 88000 Kota Kinabalu",Sabah,088-240000,3,82,5.9852816,116.0772846
583,703,KINABALU NATURE RESORT,"W.D.T. 73, Taman Kinabalu, Kundasang , 89308 Kota Kinabalu ",Sabah,088-318888,3,75,5.956037,116.093596
584,704,KINABALU PINE RESORT,"Kampung Kundasang (along Kundasang-Ranau Highway), 89307 Ranau",Sabah,088-235923,3,53,5.986033,116.5783072
585,705,KINABATANGAN RIVERSIDE LODGE,"Kg. Sukau, Kota Kinabatangan, 90000 Kinabatangan",Sabah,089-278 502,3,95,5.853742,118.053589
586,706,KINABATANGAN WETLAND RESORT,"d039a Block D, Lot 21, Taman Indah Jaya Shophouse, Mile 4, Labuk Road, 90000 Sandakan",Sabah,089-211441,3,138,5.839444,118.1171729
587,707,KING ING HOTEL,"No.182, Jalan Boyan, 96400 Mukah",Sarawak,084-871400,3,68,2.9000279,112.0933238
588,708,KINGS HOTEL MELAKA,"No.30, Lebuh Ayer Keroh, 75450 Melaka",Melaka,06-2313899,3,86,2.236599,102.2887961
589,709,KINGSLEY HOTEL,"LOT 2167, JALAN SYLVIA, MCLD 98000 MIRI",Sarawak,085-423 988,3,135,4.3968115,113.9911656
590,710,KINGSTON HOTEL ,"No. 47, Jalan Bayu Puteri 1/3, Taman Bayu Puteri, Masai, 80150 Johor Bahru",Johor,07-3356180,3,91,1.4979394,103.7891388
591,711,KINGSTON HOTEL,"TB 4581 - 4590, Lot 6-15, Ground Floor, 1st  2nd Floor, Jalan. Hj. Karim, 91000 Tawau",Sabah,089-702288/702388,3,99,4.2454923,117.8906988
592,712,KINGSTON HOTEL,"Block A, Lot 6, Ground Floor, KK Times Square, 88100 Kota Kinabalu",Sabah,089-881000,3,69,5.9697536,116.0648416
593,713,KINGWOOD HOTEL  RESORT,"Lot 96, Blok 17 Mukah Land District, 96400 Mukah",Sarawak,084-873 888,3,99,2.8296074,112.28609
594,714,KINGWOOD HOTEL MUKAH,"Lot 1004, Block 68, Medan Setia Raja, 96400 Mukah",Sarawak,084-335888,3,135,2.88793,112.0898768
595,715,KINGWOOD INN,"Lot 618, Section 62, KTLD, Jalan Padungan, 93100 Kuching",Sarawak,085-415888,3,128,1.5539166,110.3585009
596,716,KINGWOOD INN MIRI,"Lot 826, Jalan Yu Seng Utara, 98008 Miri",Sarawak,082-330888,3,109,4.3986974,113.9890594
597,717,KINRARA RESORT,"Jalan Kinrara 6, Bandar Kinrara,47180 Puchong",Selangor,03-80791000,3,138,3.0364159,101.6579266
598,718,KK INN HOTEL,"NO. 8 Jalan Draviden, Bandar Baru Ampang, Ulu Langat, 68000 Ampang",Selangor,03-42706922,3,101,3.14556,101.7692888
599,719,KLANA BEACH RESORT PORT DICKSON ,"Kompleks Baitulhilal, Lot 4506, Batu 8, Jalan Pantai, 71050 Port Dickson ",Negeri Sembilan,06-648 7888,3,84,2.4181628,101.8596455
600,720,KLOE HOTEL,"227 Jalan Bukit Bintang, 51000 Kuala Lumpur",Wilayah Persekutuan Kuala Lumpur,03-27721313,3,79,3.1469938,101.7177171
601,721,KOHO HOTEL,"NO.90 JALAN KEMUNTING, TAMAN KEBUN TEH, 80250 JOHOR BAHARU",Johor,07-3321111,3,78,1.4978197,103.7643628
602,722,KOTA BELUD HOTEL,"Kota Belud Ranau Bypass, 89158 Kota Belud",Sabah,088-977062,3,117,6.2660318,116.455603
603,723,KOTA LODGE,"No. 26  26A, Jalan Kota Laksamana 3 Taman Kota Laksamana, 75200 Melaka",Melaka,06-281 6512,3,103,2.1944127,102.2441329
604,724,KRIS LODGE ,"SUB LOT 232, GROUND FLOOR, KEMENA COMM.CENTRE 97000 BINTULU",Sarawak,086-330977,3,118,3.198136,113.0455789
605,725,KSL HOTSPRING RESORT@DAYA,G-01 Jalan Delima 3/2 Mukim Tebrau 81100,Johor,07-288 2999,3,139,1.536898,103.7616076
606,726,KT BEACH RESORT,"548-E, Jalan Sultan Zainal Abidin, 20000 Kuala Terengganu",Terengganu,09-6315555,3,77,5.3362198,103.1439021
607,727,KUALA LUMPUR INTERNATIONAL HOTEL,"No.79, Lrg Haji Hussein, Off Jalan Raja Muda Abd Aziz, 50300 Kuala Lumpur",Wilayah Persekutuan Kuala Lumpur,03-2692 9133,3,58,3.1673582,101.6990904
608,728,KUCHING PARK HOTEL,"Lot 606, Section 10, No.62, Jalan Padungan, 93100 Kuching",Sarawak,082-239 888,3,131,1.5562006,110.3542291
609,729,KUCHING WATERFRONT LODGE,"Lot 15, Main Bazaar, 93000 Kuching",Sarawak,082-231111,3,118,1.5592714,110.3461481
610,730,KUDAT GOLF AND MARINA RESORT,"Off Jalan Urusetia, Peti Surat 779, 89057 Kudat",Sabah,088-611211,3,69,6.881666,116.8541923
611,731,LA BOSS HOTEL,"Jalan Melaka raya 4, Tmn Melaka Raya, 75000 Melaka",Melaka,06-292 1333,3,90,2.1866944,102.2547056
612,732,LA HOTEL,"Jalan St.Patrick off Jalan Belunu, 91033 Tawau",Sabah,089-762299,3,109,4.2519129,117.8930638
613,733,LABAN RATA,"W.D.T. 73, Taman Kinabalu, Kundasang ,89308 Kota Kinabalu",Sabah,088-318888,3,56,5.956037,116.093596
614,734,LAKEVIEW TARRACE RESORT,"PTD 5025, JALAN KOTA TINGGI, MUKIM PENGERANG, 81620 PENGERANG",Johor,07-295 6888,3,95,1.4019832,104.2110844
615,735,LAKSAMANA TOWNLODGE,"Jalan Tmn Kota Laksamana, Kota Laksamana 2/13, Tmn Kota Laksamana, Melaka Tengah, 71510 Melaka",Melaka,06-282 2700,3,99,2.1944335,102.2389155
616,736,LAMAN PESONA RESORT  SPA,"LOT 3  4, SEKSYEN 4, KAMPUNG BARU CHEROH, 27620 RAUB",Pahang,09-3697892,3,141,3.90689,101.8164262
617,737,LANGKASUKA BEACH RESORT,"Jalan Kuala Muda, Padang Mat Sirat, 07000 Langkawi",Kedah,04-955 6888,3,77,6.345893,99.721483
618,738,LANGKAWI SEAVIEW HOTEL,"Lot 40, Jalan Penarak, Mukim Kuah, 07000 Langkawi",Kedah,04-966 0600,3,135,6.3167371,99.8556546
619,739,LANKAYAN ISLAND DIVE RESORT,"Lankayan Island, 90107 Beluran",Sabah,017-899 1700,3,58,6.5059,117.9176
620,740,LE HOTEL CHINATOWN,"37, Jalan Petaling, 50000 Kuala Lumpur",Wilayah Persekutuan Kuala Lumpur,03-20268899,3,100,3.1447725,101.6973254
621,741,LE VILLAGE BEACH RESORT,"Lot 1250, Mukim Sg. Karang, Baserah, 26000 Kuantan",Pahang,09-544 7900,3,130,3.8168287,103.3317173
622,742,LEGEND INN,"No.2, Jalan Long Jaafar, 34000 Taiping",Perak,05 - 806 6666,3,65,4.847779,100.7383111
623,743,LEISURE INN TAIPING,"No. 10, Lorong PS 16/39, Kampung Tersusun, Kampung Boyan Baru,34000 Taiping",Perak,05-806 0000,3,100,4.8384789,100.7181645
624,744,LEO PALACE HOTEL,"No 18, Jalan Rahmat, Off Jalan Ipoh, 50350 Kuala Lumpur",Wilayah Persekutuan Kuala Lumpur,012-938 8352,3,89,3.1706062,101.6929555
625,745,LI HUA HOTEL,"Berjaya Commercial Centre, Jalan Sultan Iskandar, 97000 Bintulu",Sarawak,086-335000,3,83,3.1832917,113.0511847
626,746,LIBARAN HOTEL,"Block C7, Lot 3  4, Bandar labuk Jaya, Mile 7, 90000 Sandakan",Sabah,089-233 037,3,58,5.8813051,118.0493004
627,747,LINK COURT HOTEL,"6, Jalan Medan Nusa Perintis 11, Taman Nusa Perintis 2, 81550 Gelang Patah",Johor,07-531 1908,3,128,1.4513717,103.5932842
628,748,LINTAS PLATINUM HOTEL,"LINTAS JAYA UPTOWNSHIP, JALAN LINTAS, KEPAYAN HIGHWAY, 88200 KOTA KINABALU",Sabah,088-742277/742288,3,70,5.9308366,116.0703353
629,749,LOT 10 HOTEL,"SECTION 53, JALAN BAN HOCK, OFF JALAN CENTRAL TIMUR, 93100 KUCHING",Sarawak,082-232 228,3,118,1.5532296,110.3512344
630,750,LOTUS INN,"2846, Jalan Semabok, 75050 Melaka",Melaka,06-283 6910,3,143,2.1959873,102.2684892
631,751,LUMUT VILLA INN,"Batu 1, Jalan Setiawan, 32200 Lumut",Perak,05-683 5982,3,123,4.216906,100.6648811
632,752,M HOTEL ,"TOWER A  B, HOCK LEE CENTRE, JALAN DATUK ABANG ABDUL RAHIM, 93450 KUCHING",Sarawak,082-484 888,3,100,1.5529231,110.3675092
633,753,MANDARIN COURT HOTEL,"No. 55, Jalan Maharajalela, 50150 Kuala Lumpur",Wilayah Persekutuan Kuala Lumpur,03-2273 9933,3,79,3.1373061,101.7005581
634,754,MANDURAH HOTEL,"Lot 1375  13778, Jalan Kuantan - Kemaman, 26100 Kuantan",Pahang,09-5445566,3,98,3.8708751,103.3661813
635,755,MANIKHAR BEACH RESORT,"Jalan Batu Manikar, 87014 Labuan",Wilayah Persekutuan Labuan,087-418700,3,132,5.3786728,115.2293248
636,756,MARINA WELL HOTEL,"No 4850, Jln KSB 1, Tmn Kota Syahbandar,75200 Melaka",Melaka,06-2880168,3,143,2.1927461,102.2387688
637,757,MARJAN HOTEL,"PT 14633, Jalan Lebai Saras KCP, 24000 Kemaman",Terengganu,09-8586767,3,142,4.2325355,103.4216361
638,758,MARUDU INN,"Lot 61, Pekan Goshen, P.Ogtbox 178, 89108 Kota MArudu",Sabah,088-661 993,3,110,6.4930438,116.760275
639,759,MARVELUX HOTEL,"No. 6, Jalan KLJ 1, Taman Kota Laksamana Jaya, 75200 Melaka",Melaka,06-2812222,3,83,2.19802,102.2337011
640,760,MAYLAND HOTEL,"Lot 347 Marudi Town District, P.O Box 20, 98057 Marudi, Baram",Sarawak,085-755106,3,83,4.4063366,114.2628251
641,761,MAYRES HOTEL,"Tingkat 8, Menara Kota, No.29, Jalan Tun Habab, 81900 Kota Tinggi",Johor,07-883 9099,3,122,1.7312269,103.8988872
642,762,MB HOTEL,"TB 339, Jalan Masjid, 91000 Tawau",Sabah,089-701333,3,88,4.2480802,117.8883677
643,763,MBH HOTEL KAMPAR,"NO. 1, JALAN BATU KARANG, TAMAN BANDAR BARU, 31900 KAMPAR",Perak,05-467 2777,3,114,4.3305686,101.1463843
644,764,MEGA INN,"27-28, Blok c, King039s Centre, Jalan Simpang Tiga, 93300 Kuching",Sarawak,083-326998,3,63,1.5370614,110.3560838
645,765,MEGA VIEW HOTEL,"Lot 567, Jalan. Besar, 25000 Kuantan",Pahang,09-5171888,3,70,3.8058351,103.3289327
646,766,MEI HOTEL,"50, LORONG ABU SITI, 10400 GEORGETOWN",Pulau Pinang,04-2170555,3,137,5.4177595,100.3231495
647,767,MELDRUM HOTEL,"No.1, Jalan Siu Nam, Jalan Meldrum, 80000 Johor Bahru",Johor,07-227 8988,3,57,1.459082,103.7658369
648,768,MELINA BEACH RESORT,"KAMPUNG GENTING, PULAU TIOMAN, 26800 ROMPIN",Pahang,09-419 7080,3,80,2.7764,104.1186
649,769,MERANG SURIA RESORT,"Lot 1841, Kampung Rhu Tapai, 21010 Merang Setiu",Terengganu,09-6531600/1602,3,140,5.513375,102.9800048
650,770,MERCURE PENANG BEACH,"505, Jalan Tanjung Bungah, 11200 Tanjung Bungah",Pulau Pinang,04-3718888,3,108,5.4637784,100.3017774
651,771,MERITIN HOTEL,"LOT 315, SECTION 49 KTLD, JALAN PADUNGAN, 93100 KUCHING",Sarawak,082-550800,3,51,1.552814,110.3603455
652,772,MERRIDA HOTEL,"No. 18A, Lebuh Enggang Off Persiaran Sultan Ibrahim, 41050 Klang",Selangor,03-3344 8833,3,78,3.056675,101.4557993
653,773,MERRY LAND HOTEL,"No. 4  5, Jalan UAB 1, Taman Dato Undang Abu Bakar, 71600 Kuala Klawang, Jelebu",Negeri Sembilan,06-613 6388,3,81,2.941832,102.0659408
654,774,MERRYLAND HOTEL,"NO.4  5 JALAN UAB 1, TAMAN DATO UNDANG ABU BAKAR, 71600 KUALA KLAWANG, JELEBU",Negeri Sembilan,06-613 4164,3,114,2.941832,102.0659408
655,775,METRO HOTEL BUKIT BINTANG,"NO. 208, JALAN PUDI-IMBI, BUKIT BINTANG, 55100",Wilayah Persekutuan Kuala Lumpur,03-2143 7001,3,94,3.1426773,101.7082083
656,776,MH HOTEL,"PT 212695, JALAN SULTAN AZLAN, 31400 IPOH",Perak,05-545 1000,3,87,4.57581,101.0893049
657,777,MH SENTRAL HOTEL,"Lot 3543, Sentral MH, Jalan Ipoh, Sungai Siput (U), 31100 Kuala Kangsar",Perak,05-597 1000,3,101,4.8154743,101.080496
658,778,MID CITY HOTEL,"499, Jalan Melaka Raya 12, Taman Melaka Raya,75000 Melaka Tengah",Melaka,06-2881188,3,122,2.1877593,102.2567958
659,779,MIHRAB HOTEL PUTRAJAYA,"NO. 67A, JALAN DIPLOMATIK, PRESINT DIPLOMATIK, 62050",Wilayah Persekutuan Putrajaya,03-8893 5500,3,70,2.9448102,101.7236292
660,780,MILLESIME HOTEL,"B-01-01 JALAN PERSIARAN AFIAT, TAMAN KESIHATAN AFIAT, ISKANDAR PUTERI ",Johor,07-509 8866,3,141,1.4492525,103.594213
661,781,MIN HOUSE CAMP,"Lot 440, Kg. Pulau, Kubang Kerian, 16150 Kota Bharu",Kelantan,013-9225440,3,81,6.0910513,102.2938295
662,782,MOV HOTEL,"NO.43 JALAN BERANGAN, BUKIT BINTANG, 50200 ",Wilayah Persekutuan Kuala Lumpur,03-2781 9888,3,105,3.1475847,101.7088119
663,783,MTREE HOTEL PUCHONG,"NO.6 JALAN KENARI 12, BANDAR PUCHONG JAYA, 47170 PUCHONG",Selangor,03-8071 2333,3,96,3.0505251,101.6235545
664,784,MUAR TRADERS HOTEL,"No. 16, Jalan Petrie, 84000 Muar",Johor,06-9538100,3,137,2.046124,102.5586511
665,785,MY INN HOTEL,"Lot 256 -271, Bandar Sri Perdana, Phase 3, Jalan Silam, 91100 Lahad Datu",Sabah,089-864488,3,52,5.02523,118.294348
666,786,MY NATURE RESORT,"d/a: S.I. TOURS SDN. BHD. LOT 59, PHASE II, SANDAKAN HARBOUR SQUARE, 90000 SANDAKAN",Sabah,089-213502/3,3,116,5.8938441,118.0764229
667,787,NADIAS HOTEL LANGKAWI,"Lot 977, Pantai Cenang Mukim Kedawang",Kedah,04-9551401,3,139,6.2910639,99.7275976
668,788,NATURE INN SDN BHD,"No. 1  3, Lorong Sentosa 4A, Tmn Bayu Tinggi, 41200 Klang",Selangor,03-3324 2310,3,100,3.013632,101.430635
669,789,NEW REJANG INN,"No.104, Jalan Teo Chow Beng, 96800 Kapit",Sarawak,084-796 600,3,80,2.016541,112.9387097
670,790,NEWBRIDGE HOTEL,"148, JALAN BUNGA RAYA, 75100",Melaka,06-281 3636,3,99,2.2002927,102.2516402
671,791,NEWTOWN STAR HOTEL SDN BHD,"No. 1, Tingkat Bawah, Jalan KS 10/KU5, Tmn Klang Sentral, 41050 Klang",Selangor,07-268 7406,3,94,3.1114139,101.4413958
672,792,NINETY SIX (TAMAN ARKED),"No. 3, Jalan ASB 1, Taman Arked Sutera Belia, 75350 Batu Berendam",Melaka,06-3192906,3,73,2.251,102.2504
673,793,NOORDIN MEWS,"NO. 53, LEBUH NOORDIN, 10300 GEORGETOWN",Pulau Pinang,04-263 7125,3,138,5.4118503,100.3314805
674,794,NOUVELLE HOTEL,"8th.KM, Kuala Lumpur-Seremban Highway, Sungai Besi, 43300 Seri Kembangan",Selangor,03-8939555,3,111,3.0480026,101.7052327
675,795,NOUVELLE HOTEL,"No. 1, Jalan Lagenda 1, Tmn Lagenda Putra, 81000 Kulaijaya",Johor,07-6623555,3,60,1.6598498,103.5702761
676,796,NOVA HIGHLANDS RESORT  RESIDENCE CAMERON HIGHLANDS,"The Square,Jalan Aranda Nova,39100 Greencow,Cameron Highlands",Pahang,05-2541200,3,112,4.4678921,101.3847868
677,797,NU HOTEL,"NO. 126, LOT 8349 ASSYAKIRIN COMMERCE SQUARE, JALAN TANJUNG KIDURONG, 97000 BINTULU",Sarawak,086-312 233,3,109,3.1809445,113.0393255
678,798,OCEANIA HOTEL,"Lot 60,61,62,63,64 Sadong Jaya,88800 Kota Kinabalu",Sabah,088-255 818,3,87,5.9685402,116.0714949
679,799,OKID COTTAGE,"41, Jalan Permas 10/7, Bandar Baru Permas Jaya, 81750 Johor Bahru",Johor,07-38882228,3,75,1.495838,103.8138922
680,800,ONE UTAMA HOTEL,"Lot 43  43A, Block B, Bandar Utama, Mile 6, 90000 Sandakan",Sabah,089-209 181,3,79,5.839444,118.1171729
681,801,ORCHARD INN,"No.64, Jalan Airport, 96800 Kapit",Sarawak,084-796325,3,120,2.0104308,112.9327066
682,802,ORIENTAL CRYSTAL HOTEL,"Lot 13, Jalan S10/3, Section 10, Off Jalan Bukit, 43000 Kajang",Selangor,03-87391888,3,81,2.9901664,101.7908624
683,803,ORIENTAL EVERGREEN HOTEL,"157, Jalan. Hj. Abdul Rahman, 25000 Kuantan",Pahang,05-9513 0168,3,104,3.8078581,103.3218963
684,804,PALM GARDEN INN,"Lot D1, Lorong No. 1, Phase 1A, Tmn Indah, Mile 4, North Road, Jalan Cecily, 90000 Sandakan",Sabah,03-8943 2233,3,139,5.8339227,118.0673886
685,805,PALM SEREMBAN HOTEL,"Jalan Sungai Ujong, 70200 Seremban",Negeri Sembilan,06-768 0088,3,120,2.713308,101.9133742
686,806,PALOH INN,"Wisma Nordin, Lot 74, Kg.Paloh, Pintu Geng, 15050 Kota Bharu",Kelantan,011-2549 7623,3,89,6.1054663,102.2351294
687,807,PANGKOR CORAL BAY RESORT,"Lot 34, Pasir Bogak, 32300 Pulau Pangkor",Perak,05-6855111,3,101,4.2105211,100.5591044
688,808,PANMOUR VILLA,"78, Lebuh Turi, Taman Chi Liung, 41200 Klang",Selangor,03-3371 9399,3,130,3.0264857,101.428787
689,809,PANMOUR VILLA SHAH ALAM,"5  7, Jalan Singa B20/B, Seksyen 20, 40300 Shah Alam",Selangor,03-5542 5988,3,68,3.0567366,101.5415131
690,810,PARADISE SPA HOTEL,"PT 1483, Batu 2, Jalan Seremban Tanjung Gemok, 71000 Port Dickson",Negeri Sembilan,06-6517888,3,80,2.5498877,101.7959357
691,811,PARAGON LUTONG HOTEL,"Lot 10203-10220, Jalan Kampung Pangkalan, 98107 Lutong, Miri",Sarawak,085-662 211,3,139,4.4701218,114.0121854
692,812,PARAMOUNT HOTEL,"No.3, Lorong 9A, Jalan Kg. Datu 9A Jalan Kampung Datu  96000 Sibu",Sarawak,084-331122,3,109,2.2934506,111.8223982
693,813,PARISS HOTEL ,"No. 38, Jalan Bestari 7/2, Taman Nusa Bestari , 81300 Skudai ",Johor,07-232 8250,3,109,1.4828048,103.6661887
694,814,PARK HOTEL,"Lot 11, Blok 39, Jalan Sentosa, Kampung Air, 88000 Kota Kinabalu",Sabah,088-222 999,3,126,5.9793269,116.074995
695,815,PARK HOTEL,"Jalan Raja, 98007 Miri",Sarawak,085-22155,3,55,4.3922312,113.9872127
696,816,PD FAMILY HOTEL,"3132, Jalan PD Sunggala Gateway,71050 Port Dickson",Negeri Sembilan,06-6626688,3,117,2.4744956,101.8563308
697,817,PEARL VIEW HOTEL,"2933, Jalan Baru, 13600 Butterworth",Pulau Pinang,04-398 9888,3,96,5.3790672,100.3979724
698,818,PEGAGUS HOTEL,"Jalan Pahat K 15/K, Dataran Otomobil, 40200 Shah Alam",Selangor,03-5036888,3,106,3.0642749,101.5274548
699,819,PENINSULA RESIDENCE HOTEL,"10, Jalan Semantan, Bukit Damansara, 50494 Kuala Lumpur",Wilayah Persekutuan Kuala Lumpur,03-20841515,3,116,3.1509833,101.6707191
700,820,PENVIEW HOTEL,"Lot 3411, Blok D, Jalan Tun Razak, 93450 Kuching",Sarawak,082-341 200,3,141,1.5427681,110.3720135
701,821,PERDANA RESORT,"Jalan Kuala Pa Amat, Pantai Cahaya Bulan, 15710 Kota Bharu",Kelantan,09-7485000,3,137,6.1962687,102.2737696
702,822,PERHENTIAN ISLAND RESORT ,"Pulau Perhentian Besar, Kuala Besut , 22300 Besut",Terengganu,010-9030100/09-6974900,3,118,5.902713,102.755912
703,823,PERMAI HOTEL KUALA TERENGGANU ,"Jalan Sultan Mahmud, 20400 Kuala Terengganu",Terengganu,09-6222122,3,55,5.3194822,103.1532541
704,824,PERMAISURI MITC MELAKA,"Lot. 15232  15232, Jalan Food City, Melaka International Trade Centre, 75450 Ayer Keroh",Melaka,06-231 7808,3,101,2.269908,102.2944891
705,825,PERMAISURI RESORT,"KM 16 (Batu 10) Tg. Biru, Jalan Pantai, 71250 Port Dickson",Negeri Sembilan,06-662 1558,3,112,2.4156852,101.8574301
706,826,PERTH HOTEL,"No. 21, Jalan Terminal 1, 81400 Senai",Johor,07-5909922,3,124,1.6368076,103.6631725
707,827,PHOENIX HOTEL,"Lot No. 152, 153 dan 154, Sek. 69, No. 57, Jalan Sungai Besi, 57100 Kuala Lumpur",Wilayah Persekutuan Kuala Lumpur,03-91322546,3,60,3.1294138,101.7122665
708,828,PINETREE HOTEL,"NO. 36, LOT 9523, JALAN MENGKUDU, TAMAN ABDUL RAHMAN JA039FAR, 83000 BATU PAHAT",Johor,07-431 9933,3,90,1.8612779,102.9373355
709,829,PREMIER HOTEL,"Sarawak House Complex, Jalan Kampung Nyabor, 96000 Sibu",Sarawak,084-323222,3,57,2.289487,111.8299852
710,830,PREMIER INN,"Lot 9, Blok C, Taman Hsiang, Leila Road, 90704 Sandakan",Sabah,089-273 131,3,124,5.839444,118.1171729
711,831,PRESCOTT HOTEL KUALA LUMPUR - MEDAN TUANKU,"NO. 23, LORONG MEDAN TUANKU SATU, OFF JALAN SULTAN ISMAIL, 50300",Wilayah Persekutuan Kuala Lumpur,03-2713 7887,3,55,3.1589484,101.697267
712,832,PRESCOTT HOTEL KUALA LUMPUR SENTRAL,"No. 10, Jln Tun Sambanthan, Brickfields, 50470",Wilayah Persekutuan Kuala Lumpur,03-2273 1222,3,88,3.1362033,101.6910185
713,833,PRIMALAND PORT DICKSON RESORT  CONVENTION CENTRE,"1, PD Tiara, Batu 13, Jalan. Pantai, Pasir Panjang, 71250 Port Dickson",Negeri Sembilan,06-662 8888,3,138,2.52254,101.7962932
714,834,PRIME CITY HOTEL,"No.20, Jalan Bakawali, 86000 Kluang",Johor,07-7711111,3,124,2.0356371,103.3227149
715,835,PROMENADE HOTEL,"Eastern Plaza, Mile 1, Jalan Kuhara , 91000 Tawau ",Sabah,089-982888,3,118,4.2541904,117.8966152
716,836,PROMENADE HOTEL BINTULU,"Lot 8074, No. 178, Bintulu Sentral, 97000 Bintulu, Sarawak",Sarawak,086-858 888,3,90,3.201614,113.0591105
717,837,PUNCAK INN FRASER039S HILL,"Jalan Genting,49000 Bukit Fraser",Pahang,09-3622007,3,109,3.7202083,101.7352996
718,838,PURI PUJANGGA HOTEL,"Universiti Kebangsaan Malaysia,43600 Bangi",Selangor,03-89213361,3,113,2.9198401,101.780868
719,839,PURNAMA HOTEL,"Jalan Buangsiol, 98700 Limbang",Sarawak,085-216700,3,75,4.7566514,115.0078027
720,840,PUTATAN PLATINUM HOTEL,"Lorong Hussin, Jalan Putatan, Putatan town 882200 Kota Kinabalu",Sabah,+60 88-735 111,3,117,5.8807585,116.0496612
721,841,PUTERI GARDEN HOTEL,"Jalan Padang off Jalan Istana, Garden Business Centre, 41000 Klang",Selangor,03-3374 7777,3,107,3.0403597,101.4485547
722,842,PUTRA PUTRI LODGE,"No 26, Tmn Putra Putri, Repoh,01000 Kangar",Perlis,04-978235,3,112,6.447329,100.2127027
723,843,QUALITY HOTEL SHAH ALAM,"Plaza Perangsang, Persiaran Perbandaran , 40000 Shah Alam",Selangor,03-5510 3696,3,129,3.073048,101.5181429
724,844,RED ROCK HOTEL,"202-A, Jalan Macalister, 10400 Georgetown",Pulau Pinang,04-226 6060,3,137,5.4171337,100.3232886
725,845,RED TOMATO HOTEL,"U0134, Jalan Bunga Mawar, 87031 Labuan",Wilayah Persekutuan Labuan,087-412963,3,64,5.2792477,115.2416462
726,846,REDANGKALONG RESORT,"Lot 84-86, Telok Bakau, Pulau Redang, 21090 Kuala Terengganu",Terengganu,09-6221591,3,118,5.7844414,103.0068926
727,847,REFRESHING SPRINGS RESORT,"PT4049, Mukim Sungai Gumut, Kampung Gumut Tambahan,44100 Hulu Selangor",Selangor,019-253 5988,3,60,3.623938,101.5780421
728,848,REGALO HOTEL,"17  19, Jln KL3/10A, Tmn Kota Laksamana, Seksyen 3,75200 Melaka Tengah",Melaka,06-283 3663,3,134,2.2124061,102.264992
729,849,REGALODGE,"131, Jalan Raja Ekram, 30450 Kinta",Perak,05-2425555,3,130,4.6009126,101.0873095
730,850,REGENCY PELAGUS RESORT KAPIT,"P.O. Box 176, Kapit, 96807 Kapit",Sarawak,084-799050,3,55,1.995115,112.933085
